StoreName,CityName,StreetAddress1,StreetAddress2,StreetAddress3,latitude,longitude
政立路店,上海市,上海市上海市,,上海市杨浦区政立路477号,31.308692390492,121.508437156808
合肥融创茂店,合肥市,安徽省合肥市,,安徽省合肥市滨湖新区庐州大道800号滨湖万达城一楼1036号,31.70178448208094,117.30357134361842
浦东嘉里城店,上海市,上海市上海市,,上海市浦东新区花木路1378号浦东嘉里城商场一层L110单元,31.21199673544821,121.5630276202501
上海大宁音乐广场店,上海市,上海市上海市,,上海市静安区万荣路777弄2号101室,31.2791193621831,121.444029808044
悦荟店,上海市,上海市上海市,,上海市黄浦区南京东路353号1楼122室-2楼211室,31.23652622,121.4838252
上海汇锦里店,上海市,上海市上海市,,上海市杨浦区国权路73号,31.288326803437,121.518199324673
来福士2F店,上海市,上海市上海市,,上海市黄浦区西藏中路268号来福士广场2楼04-05单元,31.23188,121.476417
北京陈家营西路店,北京市,北京市北京市,,北京市昌平区陈家营西路3号院23号楼 招商嘉铭珑原商业楼 1层101-2单元,40.04092948,116.40119101
兰州中川机场店,兰州市,甘肃省兰州市,,兰州新区中川机场T2航站楼出发安检内2-2-38商铺,36.504707,103.618088
呼和浩特成吉思汗西街店,呼和浩特市,内蒙古自治区呼和浩特市,,内蒙古呼和浩特市回民区成吉思汗西街与阿拉善北路交叉口回民区万达广场地面一层1029号和1030号铺位,40.83189673977521,111.60936534448415
鞍山百盛店,鞍山市,辽宁省鞍山市,,鞍山市铁东区二道街88号百盛广场一楼,41.11447156,122.99128465
北京荣华南路咖啡店,北京市,北京市北京市,,北京市经济技术开发区荣华南路15号院1号楼101-011室,39.7809941900001,116.51794195
广州百信广场东区店,广州市,广东省广州市,,广东省广州市白云区机场路1399 号百信广场首层自编BX1L1005（包括物业首层309 单元与物业,23.19475045,113.262108
上海凯德闵行中心2店,上海市,上海市上海市,,上海市闵行区沪闵路6088号1层01-02号,31.10824882,121.37854865
温州梦多多店,温州市,浙江省温州市,,浙江省温州市瓯海区六虹桥路1189号1-2层B1-07—B2-07单元,27.98016433829708,120.62671673291337
新闸路店,上海市,上海市上海市,,上海市静安区新闸路1250号10号楼一层5室-10室,31.23246055,121.45222485
临港港城新天地店,上海市,上海市上海市,,上海市浦东新区茉莉路港城新天地225弄67号,30.89464801240587,121.90612292237348
中山公园店,上海市,上海市上海市,,上海市长宁区长宁路999号1F,31.21792876793345,121.417769909167
星巴克臻选酒坊来福士店,重庆市,重庆市重庆市,,重庆渝中区朝天门重庆市渝中区接圣街8号来福士广场购物中心1层119号，2层118a号,29.56601522855116,106.58779978752138
佛山容桂海骏达店,佛山市,广东省佛山市,,佛山市顺德区桂洲大道中海骏达广场首层109单元,22.7589819400001,113.27600068
厦门软件园生活广场分店,厦门市,福建省厦门市,,厦门市思明区金山路和吕岭路交汇处软件园二期南二门出口（岭兜西路621号）地上一层110-1、111号店铺,24.48418772,118.17717948
广州安华汇店,广州市,广东省广州市,,白云区白云大道北756号首层L1C001-L1C003单元,23.216793,113.296249
北京大兴国际机场4店,北京市,北京市北京市,,北京市大兴区大兴新机场一层国际抵港大厅S-AR01-007,39.513813,116.418625
南昌中山天虹店,南昌市,江西省南昌市,,南昌市西湖区中山路318号天虹百货1楼,28.674852,115.89189
临沂颐高上海街咖啡店,临沂市,山东省临沂市,,山东省临沂市兰山区沂蒙北路87号颐高上海街一层,35.105748,118.3446
杭州东方通信店,杭州市,浙江省杭州市,,浙江省杭州市滨江区东信大道66号东方通信城三期2号楼第一层101单元,30.17838,120.142636
深圳新城市广场分店,深圳市,广东省深圳市,,深圳市福田区深南中路1093号中信广场1002号,22.539622,114.097438
深圳荣超商务中心店,深圳市,广东省深圳市,,福田区益田路6003号荣超商务中心B栋01层,22.54380856,114.05522773
深圳宝安大仟里1店,深圳市,广东省深圳市,,宝安区宝安大道和海城路交汇处宝安大仟里一层,22.5686333433433,113.871896266937
永业公寓店,上海市,上海市上海市,,上海市黄浦区徐家汇路193-199号,31.20887854,121.47689674
苏州木渎天虹店,苏州市,江苏省苏州市,,江苏省苏州市吴中区木渎镇花苑东路726号A1032,31.2619270430912,120.518261075085
浦东星河湾店,上海市,上海市上海市,,上海市浦东新区锦绣路2580号星河湾商业街1号101铺位,31.1941470099191,121.538044452536
福州世欧广场分店,福州市,福建省福州市,,福建省福州市晋安区晋连路18号福州世欧广场地上一层的A3-1-32 和A3-1-33 单元,26.070981,119.327165
苏州石路百脑汇店,苏州市,江苏省苏州市,,江苏省苏州市姑苏区金门路168号石路百脑汇大厦第1层的1Y04单元，第2层的2Y06单元,31.31064025223875,120.6005469561933
青浦凯特利广场,上海市,上海市上海市,,上海市青浦区公园路458号101室-02,31.14870189,121.11689635
武汉火车站到达层,武汉市,湖北省武汉市,,武汉市青山区武汉火车站到达层靠近西出站口,30.6075686964379,114.42365006940238
厦门金湖路分店,厦门市,福建省厦门市,,厦门市湖里区金湖路 101 号,24.51159036,118.1599303
松江科技广场店,上海市,上海市上海市,,上海市松江区莘砖公路668号1层106-1、106-2商铺,31.092776,121.316411
菊盛路店,上海市,上海市上海市,,上海市宝山区菊盛路936号、938号、940号-1单元,31.36249611,121.36850312
武汉骏业财富中心店,武汉市,湖北省武汉市,,湖北省武汉市洪山区欢乐大道75号骏业财富中心B座一层06单元,30.58189634720668,114.36485019585234
常州弘阳广场店,常州市,江苏省常州市,,江苏省常州市天宁区中吴大道1777号弘阳广场1F 003-004单元,31.75366116,119.92903284
南京苏宁银河店,南京市,江苏省南京市,,江苏省南京市山西路1号,32.06765150621951,118.77248847487866
恒汇大厦店,上海市,上海市上海市,,上海市静安区恒汇广场天目西路437、439号,31.246056,121.452385
申大厦店,上海市,上海市上海市,,上海市黄浦区汉口路266号申大厦102单元,31.236113,121.484848
无锡新区百盛店,无锡市,江苏省无锡市,,江苏省无锡市新区旺庄路188号 宝龙城市广场新区百盛一层,31.54057783,120.35343214
株洲天虹百货店,株洲市,湖南省株洲市,,湖南省株洲市天元区银天广场一层1016单元,27.82492989256239,113.13098537895713
南京大洋店,南京市,江苏省南京市,,江苏省南京市秦淮区中山南路122号1层1B-17,32.03839107367337,118.78345334549522
武汉水岸国际店,武汉市,湖北省武汉市,,武汉市武昌区和平街三角路村福星惠誉水岸国际三号楼一层,30.57476467846139,114.32450733365842
天津社会山广场咖啡店,天津市,天津市天津市,,天津市西青区张家窝镇知景道321号社会山广场2号楼一层自编128号单元,39.05252,117.05014
深圳水贝IBC大厦店,深圳市,广东省深圳市,,罗湖区布心路3008号水贝珠宝总部大厦一层商铺（水贝地铁站B出口右侧）,22.574569845701014,114.12504017343964
杭州西溪新座店,杭州市,浙江省杭州市,,浙江省杭州市西湖区西溪路546号西溪新座2-102和2-103-1,30.268587,120.110964
大宁店,上海市,上海市上海市,,上海市静安区共和新路1898号大宁国际商业广场 5（E3）幢114-117室,31.2743227377946,121.453001260888
北京北清路永旺商城店,北京市,北京市北京市,,北京昌平区北清路1号院1号楼永旺国际商城购物中心1层NO.120区域,40.09585659,116.29071219
重庆北碚万达广场店,重庆市,重庆市重庆市,,重庆市北碚区歇马镇冯时行路万达广场一号门1C078号,29.798557,106.389532
镇江宝龙广场店,镇江市,江苏省镇江市,,江苏省镇江市丹徒区谷阳中大道75号L1-001单元,32.12672,119.446243
五月花生活广场店,上海市,上海市上海市,,上海市静安区芷江西路518号（一层101单元及二层201、239单元）,31.2564013234213,121.456283211774
广州新一城店,广州市,广东省广州市,,广州市海珠区宝岗大道498号新一城广场首层自编1-7号,23.093807,113.266359
北京颐堤港中心NOW店,北京市,北京市北京市,,北京市朝阳区酒仙桥路18号颐堤港商场L1-105号,39.970421,116.490311
三亚明珠广场店,三亚市,海南省三亚市,,海南省三亚市河西区解放路668号明珠广场地上一层的西南区106801单元,18.25723258,109.50398796
杭州萧山宝龙店,杭州市,浙江省杭州市,,杭州市萧山区金鸡路1057、1059、1061号,30.19566280021983,120.25383603599042
深圳南山书城店,深圳市,广东省深圳市,,深圳市南山区南海大道2748号南山书城首层,22.5196664,113.92935871
嘉定华泰广场店,上海市,上海市上海市,,上海市嘉定区江桥镇金运路355号第十八栋1层101单元,31.23768300973358,121.32011389745458
望月路店,上海市,上海市上海市,,上海市徐汇区望月路885号,31.11701202,121.46038198
沧州华北商厦店,沧州市,河北省沧州市,,沧州市新华路7号华北商厦一层星巴克新华路水月寺街交叉口华北商厦,38.31208944,116.85879727
广州天环广场1层店,广州市,广东省广州市,,广州市天河区天河路天环广场地上一层L102a、地上二层L202a及L202b号商铺,23.132707,113.324072
铭德大酒店店,上海市,上海市上海市,,上海市静安区西藏北路558号,31.25098007,121.46990408
武汉印象城店,武汉市,湖北省武汉市,,武汉市青山区和平大道1278号印象城一层01-32单元,30.631444,114.390204
常州丰臣国际广场店,常州市,江苏省常州市,,江苏省常州市新北区通江中路108号L1-16、L2-7,31.820875,119.972059
成都龙湖三千集店,成都市,四川省成都市,,四川省成都市成华区二环路东二段1号1层21号,30.674921,104.109341
宁波北仑环球东方港城店,宁波市,浙江省宁波市,,宁波市北仑区中河南路288号,29.8909430975862,121.826770305633
重庆星光天地店,重庆市,重庆市重庆市,,重庆市渝北区经开大道68号星光天地一层,29.6287964,106.53322632
天津友谊路咖啡店,天津市,天津市天津市,,天津河西区友谊路21号友谊商厦第一层的L1-1单元,39.0924141,117.20391628
无锡英特宜家购物中心店,无锡市,江苏省无锡市,,江苏省无锡市锡山经济开发区团结中路3号,31.58293904388462,120.3942732811629
桂林联达广场分店,桂林市,广西壮族自治区桂林市,,桂林市象山区环城西一路117号联达商业广场店 1-4号、1-5号铺,25.25448214,110.27997591
东莞大朗远大城市广场店,东莞市,广东省东莞市,,广东省东莞市大朗镇大井头村朗东路 1 号远大城市广场L101 单元,22.9543637,113.94788487
天津友谊路新业广场店,天津市,天津市天津市,,天津市河西区黑牛城道125号新业广场一层A101-A102,39.077734,117.214092
南京珍珠饭店店,南京市,江苏省南京市,,江苏省南京市玄武区珠江路389号,32.04886217885842,118.79528188725092
深圳方大广场店,深圳市,广东省深圳市,,广东省深圳市南山区北环大道方大广场（一期）2号研发楼裙楼商业第二层05号铺的部分（自编L206B）,22.556077,113.972731
厦门钟岭路分店,厦门市,福建省厦门市,,厦门市钟岭路68号瑞丰里地上一层10号店铺,24.531976044947918,118.1607484817505
上海越秀大厦店,上海市,上海市上海市,,上海市浦东新区福山路388号101A单元,31.22472,121.53063201
苏州御窑路店,苏州市,江苏省苏州市,,江苏省苏州市相城区御窑路66号1001室、1002室、1003室、1005室、1006室,31.37711005,120.61059652
成都富力大厦店,成都市,四川省成都市,,成都市青羊区顺城大街269号,30.66387642,104.0704464
武汉东合中心店,武汉市,湖北省武汉市,,武汉市沌口经济开发区东风3路15号东合中心一层,30.5080092607433,114.16274428367613
金山欧尚店,上海市,上海市上海市,,上海市金山区蒙山北路399号1层653-SHJS1027A铺位,30.745859,121.337006
连云港海州吾悦广场店,连云港市,江苏省连云港市,,连云港海州区秦东门大街400号S1号楼1001-1商铺秦东门大街与通灌南路交叉口,34.5700079774731,119.192841053009
济南火车站候车厅店,济南市,山东省济南市,,济南市天桥区车站街19号火车站2楼西侧,36.67056496,116.99114954
嘉定疁城国际店,上海市,上海市上海市,,上海市嘉定区塔城路295号,31.38357034048034,121.25610351562501
共康路店,上海市,上海市上海市,,上海市宝山区共和新路5000弄5号105、106、107室,31.3216630157866,121.445106983119
无锡正大乐城店,无锡市,江苏省无锡市,,江苏省无锡市惠山区华惠路绿地世纪城600号 无锡正大乐城1层 01a 铺位,31.662917,120.315689
苏州望亭禹洲商业广场店,苏州市,江苏省苏州市,,江苏省苏州市相城区光明街299号,31.42337515043382,120.4496469498008
南京华灯坊店,南京市,江苏省南京市,,江苏省南京市建邺区江东中路236号,31.999536,118.72374
成都凯德天府店,成都市,四川省成都市,,四川省成都市高新区天仁路388号一层,30.60264817210062,104.07015180535385
北京宏福路咖啡店,北京市,北京市北京市,,北京市大兴区区西红门宏福路鸿坤生活广场,39.7908739,116.34064718
金领之都店,上海市,上海市上海市,,上海市浦东新区金海路1000号19幢楼一层101室,31.2621801636612,121.621755123269
重庆企业天地店,重庆市,重庆市重庆市,,重庆渝中区瑞天路10号,29.548885238587285,106.51654958724977
徐州金鹰二期店,徐州市,江苏省徐州市,,徐州市鼓楼区中山北路2号,34.267018987670696,117.1882063150406
东莞汇一城店,东莞市,广东省东莞市,,东莞市南城区鸿福路200号第一国际汇一城购物中心1层122号铺,23.008525,113.755427
北京清河万象汇2店,北京市,北京市北京市,,北京市海淀区清河中街66号院1号楼4层（04）401内L467号,40.030094,116.33496
镇江梦溪广场店,镇江市,江苏省镇江市,,江苏省镇江市京口区正东路2号一层,32.202354,119.464867
北京王府井第二咖啡店,北京市,北京市北京市,,北京东城区王府井大街269号院1号楼B1层-102号商铺,39.912353,116.410232
福州仓山万达店,福州市,福建省福州市,,福州市浦上大道仓山万达广场室内步行街1-55号商铺,26.035916,119.275041
南通星湖101广场店,南通市,江苏省南通市,,江苏省南通市开发区星湖大道1101号2幢118室02单元,31.9222551,120.9426149
青岛伟东乐客城店,青岛市,山东省青岛市,,青岛李沧区夏庄路7号乐客城一层,36.160342,120.425804
广州昌岗合生店,广州市,广东省广州市,,广州市海珠区昌岗中路188号海珠合生生活天地首层113单元,23.089187,113.275671
嘉定威隆大厦店,上海市,上海市上海市,,上海市嘉定区曹安公路1688号1层04单元,31.25400383994383,121.36454629904622
沈阳华府新天地分店,沈阳市,辽宁省沈阳市,,沈阳市沈河区哈尔滨路168号华府新天地购物中心一层,41.81308552,123.43777522
周庄双桥店,苏州市,江苏省苏州市,,江苏省昆山市周庄镇北市街34号,31.113576,120.850229
武汉泛海城市广场店,武汉市,湖北省武汉市,,武汉市江汉区云杉路199号泛海城市广场购物中心1楼,30.6040416492986,114.255525112021
重庆环球金融中心店,重庆市,重庆市重庆市,,重庆市渝中区民族路188号环球金融中心地下一层B08和B08A单元,29.55894344,106.57794103
宁波北仑富邦店,宁波市,浙江省宁波市,,浙江省宁波市北仑区富邦街62号3单元,29.893811,121.843216
吴中路店,上海市,上海市上海市,,上海市闵行区吴中路1169号-1,31.176416,121.385078
西安老城根店,西安市,陕西省西安市,,西安市莲湖区星火路22号,34.28470058,108.921626329
成都七一广场店,成都市,四川省成都市,,新都区金光路街2号七一广场L1层1066,30.82289751677805,104.17175710201265
宝山路店,上海市,上海市上海市,,上海市静安区宝山路202号,31.2528756994413,121.476706623835
成都机场三店,成都市,四川省成都市,,成都双流国际机场T2候机楼安检内DE-F-1号,30.571965,103.956134
苏州现代传媒广场店,苏州市,江苏省苏州市,,江苏省苏州市工业园区苏州大道东265号101、102、103单元,31.324164,120.734183
古美路店,上海市,上海市上海市,,上海市徐汇区古美路1528号7幢1层01商业101D室,31.16390433,121.39893168
长风大悦城2F店,上海市,上海市上海市,,上海市普陀区大渡河路196号204单元,31.22283811,121.39519839
郑州绿地中心天空之城店,郑州市,河南省郑州市,,郑东新区东风南路与榆林北路天空之城一楼,34.7571910363361,113.768281459743
北京霄云路咖啡店,北京市,北京市北京市,,北京市朝阳区霄云路甲26号北京海航大厦万豪酒店一层,39.9598884,116.46718499
南京六合泓源广场店,南京市,江苏省南京市,,江苏省南京市六合区长江路10号101和027铺位,32.34271578,118.84220916
长春欧亚新生活店,长春市,吉林省长春市,,长春市朝阳区工农大路1899号,43.8646971,125.30605859
杭州塘栖古镇店,杭州市,浙江省杭州市,,浙江省杭州市余杭区塘栖镇西横头街14-4号,30.476921,120.18253
石家庄天山海世界店,石家庄市,河北省石家庄市,,石家庄市东高新天山大街116号,38.038277,114.608025
川沙百联店,上海市,上海市上海市,,上海市浦东新区川沙路 5398号1F-012室,31.18615673,121.6992003
南昌昌北机场T2检外店,南昌市,江西省南昌市,,昌北国际机场T2航站楼安检外出发层2号门,28.858877,115.91726
北京翠景北里咖啡店,北京市,北京市北京市,,北京市通州区翠景北里21号楼,39.88847994495053,116.65858268737792
北京西环广场2期店,北京市,北京市北京市,,北京市西城区西直门外大街1号西区B1-45/47A号,39.94113661,116.35312054
武汉百瑞景店,武汉市,湖北省武汉市,,武汉市武昌区武珞路586号宝通寺路百瑞景商业5号楼1层,30.521004,114.334621
复兴广场店,上海市,上海市上海市,,上海市黄浦区复兴中路393号C103室,31.2158275958208,121.474579095448
深圳百花店,深圳市,广东省深圳市,,深圳市福田区百花二路百花园一期首层L101,22.55400379,114.09503265
北京房山北关西路咖啡店,北京市,北京市北京市,,北京市房山区良乡北关西路14号华冠购物中心一层,39.73543644,116.13926741
紫荆广场店,上海市,上海市上海市,,上海市杨浦区控江路1628号L113单元,31.2753580079189,121.517839908993
广州天河城奥体分店,广州市,广东省广州市,,广东省广州市天河区奥体南路12号花花世界购物中心第四期商场第一层自编101,23.12962,113.416623
上海滩国际大厦店,上海市,上海市上海市,,上海市虹口区黄浦路99号111室,31.245303,121.492113
悠方店,上海市,上海市上海市,,上海市杨浦区殷行路1388弄1号102,31.3295319624479,121.507555246517
成都天府广场店,成都市,四川省成都市,,四川省成都市青羊区西御街3号,30.65607075358005,104.06467580798562
上海嘉定保利悦活城店,上海市,上海市上海市,,上海市嘉定区白银路288弄20棟19号107室,31.35314637,121.26050481
常州金坛吾悦广场店,常州市,江苏省常州市,,江苏省常州市金坛区南环二路吾悦广场1F1050号商铺,31.73015391,119.59020459
清远顺盈时代广场店,清远市,广东省清远市,,清城区人民一路28号顺盈时代广场首层1001，1003单元,23.676418,113.065323
北京建外现代城店,北京市,北京市北京市,,北京市朝阳区东三环中路39号，建外SOHO5号别墅01户,39.90532277,116.45943312
广州华就路店,广州市,广东省广州市,,广州市珠江新城华就路23号寺右公馆首层01号铺,23.1161990000001,113.316964
北京科学院南路店,北京市,北京市北京市,,北京市海淀区科学院南路6号 融科资讯中心B座1层019单元,39.98354653,116.32672384
北京王府井店,北京市,北京市北京市,,北京市东城区王府井大街253号王府井百货大楼首层,39.9139634,116.41035188
武汉洪福添美店,武汉市,湖北省武汉市,,湖北省武汉市东湖开发区雄楚大街与民院路交汇处东南角,30.49779615063809,114.3988332965455
合肥万科广场店,合肥市,安徽省合肥市,,合肥市庐阳区四里河万科广场一楼星巴克,31.89198512598056,117.23506557947988
甜爱路店,上海市,上海市上海市,,上海市虹口区四川北路2258号,31.26808153429544,121.48289501667024
中融广场店,上海市,上海市上海市,,上海市浦东新区浦东南路1078号1楼09A室,31.22842453,121.5154646
香港广场店,上海市,上海市上海市,,上海市黄浦区淮海中路283号香港广场北楼1-106,31.22381733,121.47469689
长宁来福士T3店,上海市,上海市上海市,,上海市长宁区长宁路1193号3号办公楼1层01-01室,31.21712337,121.41371354
舟山银泰店,舟山市,浙江省舟山市,,浙江省舟山市定海区临城新城海宇道99号舟山银泰百货1楼E-3,29.9882415176159,122.20912814183976
苏州坤元广场店,苏州市,江苏省苏州市,,江苏省苏州市姑苏区人民路1543号第一层101单元,31.31349826540472,120.62053906924125
北京光华路第二咖啡店,北京市,北京市北京市,,北京市朝阳区光华路9号楼1层120室,39.91364981,116.4524191
河源丽日购物广场分店,河源市,广东省河源市,,河源市新市区河源大道西沿江西路北丽日中心城一层,23.743441622941802,114.68807637691499
碧云路店,上海市,上海市上海市,,上海市浦东新区碧云路1156号&1160号,31.2422662,121.58860402
大连奥林匹克店,大连市,辽宁省大连市,,大连西岗区中山路291号万达商业广场A座,38.91040702,121.60782395
北京阜安路咖啡店,北京市,北京市北京市,,北京市朝阳区望京东园一区120号楼-2至6层101内1层1F-19a和19b商铺,39.99851497,116.48228444
宁波镇海大学科技园店,宁波市,浙江省宁波市,,浙江省宁波市镇海区中官西路777号宁波国家大学科技园科创大厦101室,29.914912,121.61228
苏州昆山淀山湖中市路店,苏州市,江苏省苏州市,,江苏省昆山市淀山湖镇中市路312号,31.18204461261098,121.02807498015866
国康路店,上海市,上海市上海市,,上海市杨浦区国康路38号3幢,31.2862602038263,121.504512548709
北京集成电路店,北京市,北京市北京市,,北京海淀中关村集成电路设计园2号楼A座,40.07412671555026,116.24884843793554
思南公馆店,上海市,上海市上海市,,上海市黄浦区思南路50号,31.215081,121.467564
哈尔滨哈西万达咖啡店,哈尔滨市,黑龙江省哈尔滨市,,哈尔滨南岗区中兴大道168号一层1001号,45.70037238,126.59032393
天津塘沽金元宝金街店,天津市,天津市天津市,,天津市滨海新区塘沽解放路668号金元宝商厦一层一单元,39.0176374176373,117.66697973002
天津时代数码广场咖啡店,天津市,天津市天津市,,天津市南开区鞍山西道259号一层101单元,39.114281,117.163669
天津津南永旺一店,天津市,天津市天津市,,天津市津南区辛庄镇津南永旺梦乐城一层,39.027245,117.341927
广州立白中心店,广州市,广东省广州市,,广州市荔湾区长堤街111 号立白国际商务中心零售商区北裙楼首层103-104 商铺,23.10190714,113.23878861
珠海仁恒星园,珠海市,广东省珠海市,,珠海市新香洲人民西路与三台石路交汇处仁恒星园商业街第1层的483-101、483-102单元,22.26680937,113.53358739
成都航天大厦店,成都市,四川省成都市,,成都市锦江区新光华街7号,30.65287444,104.06677574
昆山人民路店,苏州市,江苏省苏州市,,昆山市人民路99号昆山宾馆二号楼1F,31.38226262,120.95738599
杭州砂之船店,杭州市,浙江省杭州市,,杭州市江干区波浪文化城商业中心砂之船奥特莱斯人马街026-B、028号商铺,30.24422019627813,120.21211266386672
吴淞口国际邮轮港店,上海市,上海市上海市,,上海市宝山区宝杨路1号客运大楼1F,31.409128,121.508663
钦州世贸广场店,钦州市,广西壮族自治区钦州市,,钦州市扬帆北大道8号88号楼人和春天首层L1-105单元,21.961277,108.64858
武汉越秀星汇维港店,武汉市,湖北省武汉市,,硚口区中山大道1号星汇维港A馆1层星巴克,30.56834883561129,114.2503280640631
嘉定西云楼店,上海市,上海市上海市,,上海市嘉定区洪德路300号、302号,31.3571551320001,121.258699894
天津印象城店,天津市,天津市天津市,,天津市西青经济技术开发区友谊南路111号B区天津印象城L1-18单元,39.024713,117.218741
温州万象城五楼店,温州市,浙江省温州市,,浙江省温州市瓯海区温瑞大道999号五层L518室,27.95239386,120.68527058
深圳康佳大厦分店,深圳市,广东省深圳市,,广东省深圳市南山区科技南十二路 28 号康佳研发大厦1 层1D 号,22.53901813,113.956914
苏州平江MALL店,苏州市,江苏省苏州市,,江苏省苏州市姑苏区广济北路788号第一层的A-1-1单元,31.34281309841668,120.60345876223438
杭州临平乐慧店,杭州市,浙江省杭州市,,杭州市余杭区南兴路138号1F-02商铺,30.41214307,120.31503217
厦门中华城分店,厦门市,福建省厦门市,,厦门市思明南路171号之31B1055b 铺位,24.452756,118.083059
北京东三环南路店,北京市,北京市北京市,,北京市朝阳区东三环南路1号佳龙大厦101,39.89307031,116.46009975
广州时代地产中心店,广州市,广东省广州市,,广东省广州市越秀区东风中路410-412号首层,23.130526,113.271953
宁波东门口站店,宁波市,浙江省宁波市,,浙江省宁波市海曙区宁波轨道交通一号线东门口站地下一层59号商铺,29.87131262,121.55552037
中山盛景尚峰店,中山市,广东省中山市,,广东省中山市东区中山四路盛景尚峰3座2卡首层及二层,22.51057762,113.40238055
温州恒隆广场店,温州市,浙江省温州市,,浙江省温州市鹿城区车站大道238号一层101室,27.9955424,120.68492045
哈雷路店,上海市,上海市上海市,,上海市浦东新区哈雷路882号101室,31.1963356,121.60364781
天津滨海伊势丹店,天津市,天津市天津市,,天津开发区第二大街62号伊势丹B1层T08单元,39.023826,117.707964
苏州万科里店,苏州市,江苏省苏州市,,江苏省苏州市吴中区东方大道1088号17号楼1-01单元,31.26600348698947,120.68132972730383
西安大明宫万达店,西安市,陕西省西安市,,陕西省西安市未央区太华北路369号大明宫万达广场一层,34.316501,108.972529
国家会展中心3F店,上海市,上海市上海市,,上海市青浦区盈港东路158号D-L310,31.188423,121.302423
嘉兴海宁西田城店,嘉兴市,浙江省嘉兴市,,浙江省嘉兴市海宁市联合路97号西田城商业广场1楼03f 星巴克,30.51938921219344,120.68301630013595
扬州三盛广场店,扬州市,江苏省扬州市,,江苏省扬州市邗江区邗江中路358号,32.38043488291107,119.39812660217287
汇智广场店,上海市,上海市上海市,,上海市浦东新区金科路3057号1F(L1-1A),31.20314697,121.6013532
大华三路店,上海市,上海市上海市,,上海市宝山区大华三路81号一层A5室,31.27572485,121.41874678
青岛万象城第二分店,青岛市,山东省青岛市,,青岛市市南区山东路6号华润中心万象城地上五层L-537,36.06756025,120.37750518
常州溧阳吾悦广场店,常州市,江苏省常州市,,常州市溧阳市吾悦广场1楼1063号铺位,31.4047934930407,119.463368654251
武汉汉商21世纪店,武汉市,湖北省武汉市,,汉阳区汉阳大道557号汉商21世纪1层,30.560158,114.20989
宁波汇港大厦店,宁波市,浙江省宁波市,,浙江省宁波市鄞州区泰安中路466号S104,29.80415097,121.5453408
浦东机场交通中心店,上海市,上海市上海市,,上海浦东国际机场交通中心地铁2号线西侧廊道靠中步行道段A标段01号商铺,31.149894,121.806192
上海打浦路店,上海市,上海市上海市,,上海市黄浦区打浦路58号1-2层裙房B区,31.2040335550127,121.470047235488
扬州江都金鹰店,扬州市,江苏省扬州市,,江苏省扬州市江都区文昌东路1177号一层F1007铺位,32.405741,119.57853
福州乌山店,福州市,福建省福州市,,福州市鼓楼区乌山路乌山南入口广场东侧店面,26.075599,119.29933671
北京腾达大厦咖啡店,北京市,北京市北京市,,北京市海淀区西直门外大街168号腾达大厦2层210号,39.93819457,116.32652781
南昌红谷滩印象城店,南昌市,江西省南昌市,,南昌市红谷滩新区丰和南大道和前湖大道交界处东北角南昌印象城购物中心一楼,28.654744,115.837781
南京仁恒江湾新天地店,南京市,江苏省南京市,,江苏省南京市建邺区乐山路209号仁恒江湾新天地1层AL001商铺,31.99243192309179,118.7097591161728
宁波巴丽新地店,宁波市,浙江省宁波市,,浙江省宁波市鄞州区钱湖北路555号1-1室,29.8297856160072,121.568649530345
宁波北仑长江国际店,宁波市,浙江省宁波市,,浙江省宁波市北仑区新碶长江路465-469号,29.9111042,121.85074065
北京蓝色港湾RO臻选店,北京市,北京市北京市,,北京市朝阳区朝阳公园6号11号楼,39.948761,116.476346
绍兴柯桥万国中心店,绍兴市,浙江省绍兴市,,绍兴市柯桥区金柯桥大道1388号,30.0921579237111,120.500517725813
佛山创意产业园店,佛山市,广东省佛山市,,广东省佛山市禅城区弼塘东二街22 号厂内六幢（即15#楼）101单元,23.012785,113.098047
长沙东塘友谊商城店,长沙市,湖南省长沙市,,长沙雨花区劳动中路2号友谊商城一楼A-19星巴克,28.1686179191095,112.995024203992
昆明翠湖店,昆明市,云南省昆明市,,云南省昆明市五华区翠湖南路16-17号1幢,25.04710813,102.70538866
深圳星河上寓分店,深圳市,广东省深圳市,,广东省深圳市龙岗区龙城街道吉祥路与清林路交界处金基吉祥广场一楼的L1C-01、L1C-29及L1S-28号商铺,22.71918038281912,114.2377281188965
苏州慕斯广场店,苏州市,江苏省苏州市,,江苏省苏州市姑苏区阊胥路388号#101铺位,31.30483137,120.60638676
天津佛罗伦萨小镇店,天津市,天津市天津市,,天津新技术产业园区武清开发区前进道北侧佛罗伦萨小镇一楼F00D12号,39.37643894,117.01784131
宁波天一广场店,宁波市,浙江省宁波市,,浙江省宁波市海曙区中山东路188号天一广场VB区*,29.87046157683847,121.55567407608034
苏州圆融星座店,苏州市,江苏省苏州市,,江苏省苏州市工业园区旺墩路269号圆融星座广场,31.3180005140637,120.714403510028
秦皇岛茂业金都店,秦皇岛市,河北省秦皇岛市,,秦皇岛市海港区文化路139号茂业百货第一层126单元,39.93170449,119.60381053
北京旧宫万科咖啡店,北京市,北京市北京市,,北京市大兴区旧宫忠凉路1号院1号楼住总万科广场一层L1001、L1002号单元,39.80575438,116.46063976
宁波慈溪绿城慈园店,宁波市,浙江省宁波市,,浙江省慈溪市浒山路256~262号,30.17096563938633,121.24039888389235
鄂尔多斯市万达广场店,鄂尔多斯市,内蒙古自治区鄂尔多斯市,,内蒙古鄂尔多斯市东胜区鄂托克大街南、景观河东、宝日陶亥街,39.82113654472126,109.9815344810486
广州增城万达店,广州市,广东省广州市,,增城市荔城街增城大道 69 号广州增城万达广场一层1038 号铺,23.275739,113.816575
宁波高鑫广场店,宁波市,浙江省宁波市,,浙江省宁波市海曙区新星路111号,29.896368,121.525741
许昌新田360广场店,许昌市,河南省许昌市,,许昌市魏都区孔场街新田360广场一楼,34.0281130906555,113.85186748077106
上海OneITC店,上海市,上海市上海市,,上海市徐汇区华山路1901号B1层LG1-126商铺,31.1982401447177,121.437216997146
惠州方直广场店,惠州市,广东省惠州市,,惠州市河南岸环湖三号18号方直广场L1层FZ1068-号铺,23.06606351,114.42976334
Nike园区店,上海市,上海市上海市,,上海市杨浦区新江湾城江湾城路99号一幢,31.317623,121.508612
苏州诚品店,苏州市,江苏省苏州市,,江苏省苏州市工业园区月廊街8号L110b单元,31.320573262005,120.710011124611
天津滨海万达广场店,天津市,天津市天津市,,天津滨海新区洞庭路4572号地面一层1001号铺位,39.01300631,117.67727553
南京未来城店,南京市,江苏省南京市,,南京市玄武区珠江路498号,32.04732168985113,118.80083942432978
长沙阳光100店,长沙市,湖南省长沙市,,湖南省长沙市岳麓区南二环一段518号,28.140133791062187,112.94409012807593
杭州黄龙万科中心店,杭州市,浙江省杭州市,,浙江省杭州市西湖区翠苑街道学院路77号黄龙国际中心AB楼第一层1-104室,30.27635455740794,120.129176831324
无锡藕塘青春假日广场店,无锡市,江苏省无锡市,,无锡市惠山区文良路街青春商业中心B区1栋第1层2-109至113单元,31.580007,120.18453
汕头星湖城分店,汕头市,广东省汕头市,,广东省汕头市龙湖区金砂路179号合信星湖城14、18幢合信星湖城第一层101号房内的1-10单元,23.36679782,116.74920651
杭州滨江网新店,杭州市,浙江省杭州市,,浙江省杭州市滨江区江汉路1785号网新.双城大厦4号楼1层4-101,30.2071766,120.2015966
佛山西樵富盛广场店,佛山市,广东省佛山市,,佛山市南海区西樵镇江浦路 18 号富盛广场首层A12、13单元,22.94098977,112.98518563
青浦桥梓湾店,上海市,上海市上海市,,上海市青浦区公园路700号东方商厦一楼,31.148281,121.112755
宁波和丰创意广场店,宁波市,浙江省宁波市,,浙江省宁波市江东区江东北路街425号004幢1-1单元,29.88420765710104,121.57161891449503
上海瑞虹天地月亮湾店,上海市,上海市上海市,,上海市虹口区瑞虹路188号瑞虹天地月亮湾L1层15,31.2642439,121.49917657
天津新开路远洋新天地店,天津市,天津市天津市,,天津市河东区新开路67号101、102单元,39.13968574,117.21929849
南通万达广场店,南通市,江苏省南通市,,江苏省南通市港闸区长平路9号1层1033号,32.03712816,120.83410931
上海南丰城丰尚街1F店,上海市,上海市上海市,,上海市长宁区遵义路100号裙房一层商用房1-L106&2-L111单元,31.207240747374,121.407208442688
殷高西路店,上海市,上海市上海市,,上海市宝山区殷高西路333号3-152、3-153单元,31.3208473058366,121.473018050128
济南西站候车厅1店,济南市,山东省济南市,,济南市槐荫区齐鲁大道7号济南火车西站候车大厅二层,36.669016,116.891259
苏州干将路店,苏州市,江苏省苏州市,,江苏省苏州市姑苏区干将东路461号,31.30917638056468,120.63722455521204
武汉国贸新世界店,武汉市,湖北省武汉市,,武汉市江汉区建设大道568号国贸新世界商场一层,30.59485301053146,114.27026867866518
成都高新欧尚店,成都市,四川省成都市,,成都市高新区泰和一街88号附104,30.60235717,104.06091608
西安曲江龙湖星悦荟店,西安市,陕西省西安市,,陕西省西安市曲江新区新开门北路888号龙湖星悦荟一楼,34.217125,108.992355
深圳讯美科技广场店,深圳市,广东省深圳市,,深圳市南山区科苑路8号讯美科技广场 3栋1 层01号铺,22.54595127,113.94650517
锦延路店,上海市,上海市上海市,,上海市浦东新区锦延路219号,31.21641,121.540436
南京IFCX店,南京市,江苏省南京市,,江苏省南京市秦淮区汉中路1号南京国际金融中心第一层L1-001单元,32.04080513,118.78319336
长春迅驰广场店,长春市,吉林省长春市,,长春市净月开发区博学路1555号2#购物广场一层B-1单元及二层B-2 单元,43.820705,125.41821
南京六合龙湖天街店,南京市,江苏省南京市,,六合区雄州街道景兰路2号1F-39单元,32.32938518107187,118.84330844892249
成都新尚天地店,成都市,四川省成都市,,温江区学府路北段414号新尚天地星巴克,30.681989924053855,103.81486237049103
石家庄万达广场店,石家庄市,河北省石家庄市,,石家庄市槐安路万达广场1层,38.02292289,114.5449105
杭州运河上街店,杭州市,浙江省杭州市,,浙江省杭州市拱墅区台州路2号运河上街商业中心151铺位,30.31862634658025,120.1431187393246
杭州欧美金融城店,杭州市,浙江省杭州市,,杭州市余杭区仓前街道向往街1114号,30.2802828495031,120.003517270088
宁波港隆广场店,宁波市,浙江省宁波市,,浙江省宁波市高新区沧海路1号港隆时代广场一号楼102-105室,29.885162,121.603813
老介福店,上海市,上海市上海市,,上海市黄浦区南京东路233号,31.23752108,121.48526995
长春吾悦广场店,长春市,吉林省长春市,,长春市绿园区皓月大路1888号一层1059号,43.888529,125.27256699
盐城八佰伴店,盐城市,江苏省盐城市,,江苏省盐城市亭湖区建军西路1号八佰伴商场1层31号铺位,33.38101781,120.12432339
宁波镇海万科1902店,宁波市,浙江省宁波市,,浙江省宁波市镇海区庄市大道1088号F120铺,29.92841049213089,121.6248267889023
百联东郊店,上海市,上海市上海市,,上海市浦东新区沪南路2420号,31.154238,121.563805
武汉花园道店,武汉市,湖北省武汉市,,武汉市江汉区青年路308号花园道1楼,30.59562507432718,114.26592564563182
长沙梅溪新天地店,长沙市,湖南省长沙市,,湖南省长沙市岳麓区枫林三路1099号步步高梅溪新天地广场1F,28.19863477483001,112.86242973797926
佛山保利水城店,佛山市,广东省佛山市,,佛山市南海区桂城灯湖西路20号保利商业水城1层1A008A单元,23.059535,113.148462
石家庄万象城2店,石家庄市,河北省石家庄市,,石家庄市桥西区中山路万象城7层,38.04267371978284,114.47927445173266
G25建德服务北区店,杭州市,浙江省杭州市,,浙江省杭州市建德乌驹市村建德服务北区1号商铺,29.54289,119.387112
佛山吉利购物广场店,佛山市,广东省佛山市,,佛山市禅城区南庄镇南庄二马路89号吉利购物广场首层D18-19单元,22.96929614,113.01635002
杭州滨江宝龙北区店,杭州市,浙江省杭州市,,杭州市滨江区滨盛路3867号第一层M-F1-030号商铺,30.188586079844,120.16642820844937
泰州万达广场店,泰州市,江苏省泰州市,,江苏省泰州市海陵区济川东路232号泰州万达广场室内步行街一层1060A号铺位,32.47114089107086,119.91805028908858
南京江苏大剧院店,南京市,江苏省南京市,,江苏省南京市建邺区梦都大街189号1层5号商铺,32.012214,118.713977
绍兴人民医院店,绍兴市,浙江省绍兴市,,浙江省绍兴市越城区中兴北路568号住院部一层101单元,30.02131182,120.59416154
苏州中心6F店,苏州市,江苏省苏州市,,江苏省苏州市工业园区星港街西苏州中心广场3幢六层B-#06-16单元,31.31628391,120.67808241
宁波余姚五彩城店,宁波市,浙江省宁波市,,浙江省浙江省余姚市城东路888号1F-117,30.066716,121.17979
昆山花桥商务城店,苏州市,江苏省苏州市,,江苏省苏州市昆山市花桥经济技术开发区花安路171号2#1-2#4,31.289051110689307,121.1470749376895
无锡梅里古镇店,无锡市,江苏省无锡市,,江苏省无锡市梅里中路街1号江苏省无锡市梅里中路街1号 星巴克咖啡店,31.54249435862216,120.43939447350569
厦门恒安国际中心店,厦门市,福建省厦门市,,厦门市湖里区木浦路101、103号厦门恒安国际广场地上一层的03-04单元,24.52969239,118.18590446
南桥宝龙商业广场店,上海市,上海市上海市,,上海奉贤区航南公路5639号1F-036单元,30.9302946676455,121.462519884371
闵行颛桥万科,上海市,上海市上海市,,上海市闵行区颛兴东路1759号1层106单元,31.06908643,121.40470238
合肥百盛逍遥广场店,合肥市,安徽省合肥市,,合肥市庐阳区淮河中路77号合肥百盛逍遥广场星巴克,31.86446190643451,117.29492604732513
无锡百联奥特莱斯店,无锡市,江苏省无锡市,,江苏省无锡市新区锡勤路18-28号B1-107,31.52103351292043,120.44692182495056
武汉洪山广场站店,武汉市,湖北省武汉市,,湖北省武汉市洪山地铁站负一层商业街（靠近D出口）,30.54598874288941,114.3365806885413
武汉光谷天地店,武汉市,湖北省武汉市,,武汉市东湖新技术开发区关山大道479号,30.476389,114.41029
沈阳万象生活城店,沈阳市,辽宁省沈阳市,,沈阳市浑南区浑南西路8号万象生活城一层,41.73738363583579,123.45145940780641
南通海门文峰大世界店,南通市,江苏省南通市,,江苏省南通市海门市长江路608号海门文峰大世界一楼A23号铺位,31.889519,121.185937
深圳金光华店,深圳市,广东省深圳市,,深圳市罗湖区人民南路金光华广场负一层B1-106号商铺,22.53911909,114.11956044
乐山世豪广场店,乐山市,四川省乐山市,,乐山市市中区鹤翔路8号世豪广场1楼C120,29.60132528835681,103.72856497764589
杭州西溪湿地河渚街店,杭州市,浙江省杭州市,,浙江省杭州市西湖区文二西路777号西溪国家湿地公园河渚街,30.272517,120.073213
南洋1931店,上海市,上海市上海市,,上海市徐汇区裕德路165号1层F1-04单元,31.1861436,121.43272897
北京枫蓝国际中心店,北京市,北京市北京市,,北京市海淀区西直门北大街32号院1号楼一层106-2,39.953403,116.356024
杭州桐庐书香同城店,杭州市,浙江省杭州市,,浙江省杭州市桐庐县春江东路525号书香同城5-1-A铺位,29.80833132,119.7020987
东莞黄江天虹店,东莞市,广东省东莞市,,东莞市黄江镇板湖村富康花园天虹商场第1层01单元,22.91499290903742,114.01353299617769
杭州西溪欢乐城店,杭州市,浙江省杭州市,,浙江省杭州市余杭区闲林街道五常大道421号西溪欢乐城1号楼1-102铺位,30.241167725,120.013555885
福州东百中心分店,福州市,福建省福州市,,福州市鼓楼区八一七北路150号三坊七巷南街商业中心C区22、23、24、25铺位,26.08270074918782,119.29968595526589
北京大兴凯德Mall店,北京市,北京市北京市,,北京市大兴区华佗路2号L1-05B块,39.67230921,116.31962781
苏州吴江盛泽购物公园店,苏州市,江苏省苏州市,,江苏省苏州市吴江区盛泽镇西二环路1999号财富中心,30.902808,120.624832
苏州吴江又一城店,苏州市,江苏省苏州市,,江苏省苏州市吴江区开平路180号,31.14002849830624,120.65691626085028
天津津汇店,天津市,天津市天津市,,天津市和平区南京路189号津汇广场地下一层B-35,39.11787,117.196896
湖州长兴利时广场店,湖州市,浙江省湖州市,,浙江省湖州市长兴县太湖街道利时广场14-101-52单元,31.02042248888972,119.91907489309598
北京望京东园二店,北京市,北京市北京市,,北京市朝阳区望京东园七区望京保利国际广场T1一层101单元,39.99593656,116.4919907
西安高新卜蜂莲花店,西安市,陕西省西安市,,西安市高新区唐延路3号,34.234556,108.890222
金华义乌汇商天地店,金华市,浙江省金华市,,义乌市稠州北路1050号,29.3425604625141,120.10877680771956
泉州万达金街分店,泉州市,福建省泉州市,,泉州市浦西万达广场商业综合楼4号建筑(室外步行街)5幢第一层的北侧A单元,24.882031,118.59781
柳州五星乐和城分店,柳州市,广西壮族自治区柳州市,,广西壮族自治区柳州市文昌路20五星乐和城首层,24.32344263,109.43982482
苏州昆山春晖路店,苏州市,江苏省苏州市,,江苏省苏州昆山市周市镇春晖路望族商城9号楼1F023单元,31.39779030981213,120.98159819841386
东莞万江华南Mall店,东莞市,广东省东莞市,,东莞市万江区新城社区万江街南10号嘉荣超市华南摩尔店第一层100号,23.0363466,113.72623809
南京建邺金鹰世界影院店,南京市,江苏省南京市,,江苏省南京市建邺区应天大街888号9层F907商铺,32.023308,118.739723
常州邹区时代广场店,常州市,江苏省常州市,,江苏省常州市钟楼区邹区镇东方路188号邹区时代广场101号商铺,31.78774324,119.84987895
北京太阳宫凯德嘉茂店,北京市,北京市北京市,,北京市朝阳区太阳宫中路12号太阳宫凯德嘉茂一层01-44/45号,39.97136009,116.44681947
重庆九龙凯德广场店,重庆市,重庆市重庆市,,重庆市九龙坡区杨家坪西郊三村2号，凯德广场01层-37号,29.500498691853778,106.51193618774414
广州番禺钻汇广场分店,广州市,广东省广州市,,番禺区市桥街富华西路2号钻汇珠宝广场第一层，自编为C009号单元,22.947645,113.363316
北美广场店,上海市,上海市上海市,,上海市杨浦区昆明路508号,31.26004219,121.51247406
中建幸福空间,上海市,上海市上海市,,上海市静安区场中路2008号、2010号,31.30496,121.452492
杭州湖滨银泰B区店,杭州市,浙江省杭州市,,浙江省杭州市上城区延安路245号湖滨银泰in77-B区地下一层161室,30.255359,120.163542
嘉兴桐乡新卉店,嘉兴市,浙江省嘉兴市,,浙江省嘉兴市桐乡市桐乡市公园路22号,30.6339554790001,120.552545071
温州平阳万达广场店,温州市,浙江省温州市,,浙江省温州市平阳县鳌江镇车站大道88号,27.585840313472445,120.57232260704042
石家庄蜂巢购物中心店,石家庄市,河北省石家庄市,,河北省石家庄市 建设北大街20号蜂巢大厦1层的1017至1018单元,38.04784866835129,114.51149336055097
成都蜀都万达店,成都市,四川省成都市,,四川省成都市郫县望丛东路万达广场购物中心1F（高铁站旁）,30.808464,103.905996
哈尔滨华润万象汇店,哈尔滨市,黑龙江省哈尔滨市,,哈尔滨市松北区江北世茂大道和聚源路交叉哈尔滨万象汇L1层L101号商铺星巴克,45.80954921200269,126.53860688209535
杭州华策中心店,杭州市,浙江省杭州市,,杭州市西湖区五常港路400、402、404号、五常港路406-1号、华策中心8号楼106室,30.300096,120.065242
广州花都公益路店,广州市,广东省广州市,,广州市花都区新华街公益路25号101单元,23.39986168,113.21791114
沈阳积家购物中心店,沈阳市,辽宁省沈阳市,,沈阳市沈北新区道义南大街33号一层1F-01号单元,41.92125445,123.40044333
广州东方都会店,广州市,广东省广州市,,广州市中山大道西路186号东方都会广场首层108、109、134、136号铺,23.133673,113.361486
南昌红谷滩天虹店,南昌市,江西省南昌市,,江西省南昌市红谷滩新区红谷中大道和绿茵路交汇处联发广场一层1003单元,28.6901740000001,115.864654
广州基盛万科里店,广州市,广东省广州市,,番禺区市桥街兴泰路266号B区地上第一层自编B1-18号铺,22.93223283,113.38594507
苏州石路店,苏州市,江苏省苏州市,,江苏省苏州石路18号 1F 1001单元,31.31174205,120.60199956
枣阳路店,上海市,上海市上海市,,上海市普陀区金沙江路588号,31.2323430195762,121.401586532593
万嘉广场店,上海市,上海市上海市,,上海市浦东新区金高路389号一层,31.29337075,121.61009755
武汉青年路环贸ICC店,武汉市,湖北省武汉市,,武汉市江汉区青年路161号武汉环球贸易中心一层B102单元,30.5899046368582,114.26276063915795
陆家嘴公馆店,上海市,上海市上海市,,上海市浦东新区张杨路1550号,31.234846,121.541503
青岛香港中路银座商厦,青岛市,山东省青岛市,,青岛市市南区香港中路31号银座商厦一层,36.06602957286423,120.3916382789612
苏州玉山广场店,苏州市,江苏省苏州市,,江苏省苏州市高新区玉山路40号玉山广场1层的101单元、102单元,31.2888851625496,120.564863920408
广州增城敏捷店,广州市,广东省广州市,,增城区荔城街府佑路108号1栋118房,23.286804,113.811516
常州吾悦店,常州市,江苏省常州市,,江苏省常州市武进区武宜中路188号1F-120号,31.72837694,119.94279255
苏州竹辉路店,苏州市,江苏省苏州市,,江苏省苏州市姑苏区人民路538号,31.29261938993811,120.62635946280353
广州曜一城店,广州市,广东省广州市,,广东省广州市 天河区天河北路711、721号一层C5、C6号铺位,23.141745,113.343266
北京东方广场三店,北京市,北京市北京市,,北京市东城区东长安街1号北京东方广场东方新天地商场平台层P-W1(08-10)号店铺,39.90932764,116.41300039
杭州迪凯银座店,杭州市,浙江省杭州市,,杭州市江干区解放东路29号迪凯银座104室,30.2414952213398,120.21110951900484
宁波世纪东方广场店,宁波市,浙江省宁波市,,浙江省宁波市江东区中山东路1083号世纪东方广场一楼F1016号商铺,29.86195008,121.59360903
武汉百联奥特莱斯店,武汉市,湖北省武汉市,,武汉市黄陂区盘龙城经济开发区盘龙大道51号百联奥特莱斯广场15栋137B,30.73192978270878,114.25735116021316
徐州铜山万达店,徐州市,江苏省徐州市,,江苏省徐州市铜山区北京北路19号徐州铜山万达广场一层1051A号铺位,34.191868,117.188705
杭州绿城之江一号店,杭州市,浙江省杭州市,,浙江省杭州市西湖区转塘镇横桥路98号,30.16262268529274,120.07064223289493
武汉新唐万科广场店,武汉市,湖北省武汉市,,武汉市江汉区长青一路218号新唐万科广场一层1-35商铺,30.623375,114.261371
七宝万科5F店,上海市,上海市上海市,,上海市闵行区漕宝路3366号五层L522A+B、L543单元,31.15484356,121.3497464
太原富力广场咖啡店,太原市,山西省太原市,,太原市杏花岭区晋安东街7号富力广场1层,37.89953656,112.59497103
郑州璞丽中心店,郑州市,河南省郑州市,,郑州市金水区黄河路与经二路交汇处瀚海璞丽一楼,34.77504148,113.69565837
西安立丰百盛店,西安市,陕西省西安市,,西安市碑林区金花南路59号,34.24732306,108.99716675
广州市第一人民医院店,广州市,广东省广州市,,广州市盘福路1号第一人民医院内科大楼首层,23.131177,113.257365
杭州新芯智谷GHI店,杭州市,浙江省杭州市,,浙江省杭州市西湖区学院路77号黄龙国际中心H楼101室,30.275137,120.126199
中山益华店,中山市,广东省中山市,,广东省中山市石岐中山三路益华百货一层3号商铺,22.51126683349849,113.38524599872471
上海金汇南路店,上海市,上海市上海市,,上海市闵行区金汇南路158号,31.17169402727977,121.3774198293686
蚌埠天洋国际店,蚌埠市,安徽省蚌埠市,,安徽省蚌埠市淮河路991号风信子城一楼星巴克,32.94509156528918,117.36300480359208
沈阳长白大润发店,沈阳市,辽宁省沈阳市,,沈阳市和平区南京南街201号一层1023号,41.74545822,123.40246514
禹洲广场店,上海市,上海市上海市,,上海市浦东新区金港路299号1幢13、16室,31.2552861,121.61163729
镇江苏宁广场6F店,镇江市,江苏省镇江市,,江苏省镇江市京口区中山东路301号604铺位,32.20454707644537,119.45277392864227
宁波天一开明街店,宁波市,浙江省宁波市,,浙江省宁波市海曙区开明街324号Ib106、Ib204-205室,29.87032356,121.55217509
深圳东门茂业店,深圳市,广东省深圳市,,深圳市罗湖区东门中路2047号茂业百货首层,22.54711914,114.1212769
西安曲江银泰店,西安市,陕西省西安市,,西安市曲江雁南路银泰1楼,34.205435,108.963054
成都后花园爱琴海店,成都市,四川省成都市,,成都市犀浦镇国宁东路1019号,30.736312053522852,103.9925265312195
济南印象城店,济南市,山东省济南市,,济南市历城区花园路136号,36.68357198041683,117.0635586977005
长沙凯德壹中心店,长沙市,湖南省长沙市,,湖南省长沙市茶子山东路112号凯德壹中心L1层42号,28.24160979870573,112.95634353147761
烟台开发区万达广场店,烟台市,山东省烟台市,,烟台市经济技术开发区衡山路17号万达广场1层,37.54810421,121.25382059
镇江句容雨润中央店,镇江市,江苏省镇江市,,江苏省镇江市句容市华阳东路1号1F3002、2F2020铺位,31.94787043158033,119.16692435705046
衡阳大洋百货店,衡阳市,湖南省衡阳市,,湖南省衡阳市雁峰区解放路121号大洋百货一层,26.89441960525963,112.60122227675313
G15南通如皋服务区西,南通市,江苏省南通市,,如皋市白蒲镇蒋殿村十三组服务区西,32.2919940024122,120.7697224617
莘庄维璟印象城店,上海市,上海市上海市,,上海市闵行区七莘路1507号地上一层01-026号,31.13187295,121.36373626
佛山中海环宇城店,佛山市,广东省佛山市,,佛山市南海区桂澜中路 18 号环宇城地上层L123铺,23.043918,113.156565
周浦万达店,上海市,上海市上海市,,上海市浦东新区周浦镇年家浜路518号周浦万达广场157商铺,31.1148852088686,121.569123744703
珠海摩尔百货店,珠海市,广东省珠海市,,广东省珠海市香洲区拱北迎宾南路2095号第一层1001单元,22.23219661,113.5503082
武汉南湖时尚城店,武汉市,湖北省武汉市,,湖北省武汉市东湖新技术开发区南湖大道116号零售商区K4a号楼地上一层商1-6单元,30.4782849646018,114.38676920792204
深圳稼先路分店,深圳市,广东省深圳市,,广东省深圳市龙岗区坂田街道稼先路与马蹄山三巷交汇处华创云轩第一层的1S21单元,22.651246710416906,114.06562685999235
哈尔滨汇丽广场咖啡店,哈尔滨市,黑龙江省哈尔滨市,,哈尔滨市道里区上海街110号汇丽广场D栋,45.76006329,126.60593627
广州荔湾路店,广州市,广东省广州市,,广州市荔湾区荔湾路97号大院自编1号楼首层自编101商铺,23.12873135785993,113.2438687479953
苏州常熟永旺店,苏州市,江苏省苏州市,,江苏省苏州市常熟东南大道168号,31.60185450008227,120.7779321671842
杭州新天地集团总部店,杭州市,浙江省杭州市,,杭州市下城区新北街98号,30.326364,120.18168
深圳盈峰中心店,深圳市,广东省深圳市,,广东省深圳市南山区海天二路盈峰中心大厦首层01单元,22.52251626,113.93923106
嘉兴龙鼎万达广场店,嘉兴市,浙江省嘉兴市,,浙江省嘉兴市秀洲区龙凤路319号一层1050单元,30.75180269,120.71755301
佛山大良新世界酒店店,佛山市,广东省佛山市,,广东省佛山市顺德区大良街清晖路150号顺德新世界酒店第一层101单元,22.83713808,113.25519393
保定雄安市民服务中心店,保定市,河北省保定市,,保定市容城县白塔村东侧，奥威东路北侧雄安市民服务中心内企业办公区域零售商区的H4号楼,39.05088,115.912544
苏州欢乐颂店,苏州市,江苏省苏州市,,江苏省苏州市工业园区津梁街172号,31.3150042330304,120.741252422267
大连大都会分店,大连市,辽宁省大连市,,大连市中山区解放路80号,38.91599656,121.63774016
杭州东杭大厦店,杭州市,浙江省杭州市,,浙江省杭州市江干区城星路59号东杭大厦一层2号商铺              *,30.23782462,120.20933736
深圳罗湖万象城店,深圳市,广东省深圳市,,深圳罗湖区深南中路华润中心万象城B99号商铺,22.54140111,114.11105276
广州番禺万达店,广州市,广东省广州市,,广州市番禺区南村镇兴南大道368号番禺万达广场 一层 1056 号铺,23.006107,113.348732
佛罗伦萨小镇店,上海市,上海市上海市,,上海浦东新区卓耀路58弄127号第2层206、207室,31.19615,121.76437
北京方庄菩提咖啡店,北京市,北京市北京市,,北京市丰台区方庄紫芳园四区3号楼7号商铺,39.86195988,116.43955376
长春欧亚卖场店,长春市,吉林省长春市,,长春市朝阳区开运街5178号一层渤海大街29号,43.84190949451431,125.2434539794922
临沂九州咖啡店,临沂市,山东省临沂市,,山东省临沂市解放路183号临沂九州商业大厦一层P-1F-02单元,35.06680342,118.33248671
苏州张家港五月花广场店,苏州市,江苏省苏州市,,江苏省苏州市张家港市锦丰镇锦店路99号M141-M143单元,31.96055874984443,120.63771915461986
青岛佳世客店,青岛市,山东省青岛市,,青岛市香港中路72号,36.063291,120.397266
成都大悦城二店,成都市,四川省成都市,,成都市武侯区大悦路518号大悦城购物中心3F-003商铺,30.62682422,104.01014586
海口万达店,海口市,海南省海口市,,海南省海口市海榆中线与椰海大道交叉口东北侧海口万达广场零售商区地上一层 1056 号铺位,19.9783914,110.27798502
松江乐颂坊店,上海市,上海市上海市,,上海市松江区松汇中路568号B座,31.00560634048467,121.23390769971594
北京复兴门外咖啡店,北京市,北京市北京市,,北京市西城区复兴门外大街A2号,39.90690631,116.35153416
外高桥店,上海市,上海市上海市,,上海市浦东新区外高桥保税区加枫路24号,31.31383773,121.60568076
成都武侯吾悦店,成都市,四川省成都市,,成都市武侯区武侯大道顺江段77号,30.6256,103.989194
杭州利星1157店,杭州市,浙江省杭州市,,杭州市上城区中山南路77号第1-18、1-20号铺位,30.227289,120.169086
成都仁恒Office店,成都市,四川省成都市,,锦江区人民南路二段1号仁恒办公楼一层大堂,30.651731,104.066889
温州乐清南虹广场店,温州市,浙江省温州市,,浙江省温州市乐清市伯乐东路666号,28.10976720713867,120.98176121709912
福州三迪中心店,福州市,福建省福州市,,福建省福州市台江区振武路 55 号三迪中心地上第一层的 1-01 单元,26.056808,119.285026
渭南宏帆广场店,渭南市,陕西省渭南市,,陕西省渭南市临渭区宏帆广场1楼星巴克,34.49816588221619,109.4930934906006
东方维京大厦店,上海市,上海市上海市,,上海市长宁区仙霞路333号1层S105单元,31.20641899,121.39868927
新世界店,上海市,上海市上海市,,上海市黄浦区南京西路2－68号3F,31.23492432,121.473877
深圳华强广场酒店分店,深圳市,广东省深圳市,,深圳市福田区华强北路华强广场酒店大堂,22.54404829,114.08595173
深圳投行大厦店,深圳市,广东省深圳市,,广东省深圳市福田区福华一路115号投行大厦地上一层大堂东北角和西北角,22.53649049,114.05200009
广州保利克洛维店,广州市,广东省广州市,,广州市天河区华强路9号保利克洛维广场一期一层的105单元,23.1260569971323,113.319629430771
成都中铁艺术城门店,成都市,四川省成都市,,成都市金牛区马家花园路16号中铁鹭岛艺术城7号楼,30.68419513642984,104.05305325984956
苏州金鸡湖店,苏州市,江苏省苏州市,,江苏省苏州工业园区星港街158号湖滨新天地103-1商铺,31.31624162002327,120.68215584768042
无锡宜乐园店,无锡市,江苏省无锡市,,无锡锡沪路222号,31.58959,120.307091
福州闽侯万家广场分店,福州市,福建省福州市,,福州市闽侯县甘蔗街道昙石山大道136号闽侯万家广场3栋地上一层第132、133、135、136单元,26.145354693622746,119.1381883621216
北京中关村大街海龙大厦,北京市,北京市北京市,,北京市海淀区中关村大街1号1号楼1层F100号铺位,39.98302586,116.31515738
深圳布吉万象汇4F店,深圳市,广东省深圳市,,广东省深圳市龙岗区布吉街道百鸽笼翔鸽路华润万象汇购物中心四楼L444号商铺,22.59394723,114.13175808
杭州苏宁生活广场店,杭州市,浙江省杭州市,,浙江省杭州市拱墅区湖墅南路90号,30.2772887378098,120.155779719644
西安唐市店,西安市,陕西省西安市,,西安市曲江新区芙蓉西路99号,34.20953080048952,108.97464199526442
淄博新玛特咖啡店,淄博市,山东省淄博市,,山东省淄博市张店区中润大道1号,36.83763389,118.02681712
嘉定万科安亭新镇店,上海市,上海市上海市,,上海市嘉定区安城路278号1层101单元,31.269373,121.171837
佛山怡海港店,佛山市,广东省佛山市,,佛山市南海区桂城街道简平路7号南舜广场(怡海港)3栋首层3101、3119、3120铺,23.02433682,113.16782692
吉林昌邑万达广场店,吉林市,吉林省吉林市,,吉林市昌邑区吉林大街518号,43.884815,126.56598
上海唐镇宝燕商城店,上海市,上海市上海市,,浦东新区高科东路 515弄 8号楼 1层 101单元,31.211071800277,121.65134954459064
厦门阿罗海店,厦门市,福建省厦门市,,厦门市海沧区滨湖北二路60-80号大摩阿罗海城市广场一层B101，B102单元,24.47995884,118.0319699
杭州萧山科创中心,杭州市,浙江省杭州市,,北干街道市心中路1069号,30.1879307337065,120.2639876603098
杭州文广店,杭州市,浙江省杭州市,,杭州市上城区之江路888号,30.227414,120.200309
南通永旺梦乐城店,南通市,江苏省南通市,,江苏省南通市星湖大道1066号一层112号商铺,31.92390785,120.96187917
镇江句容碧桂园欢乐城店,镇江市,江苏省镇江市,,镇江市句容市黄梅镇碧桂园大道1号,32.015629,119.107468
深圳北站出发B区1楼店,深圳市,广东省深圳市,,深圳市龙华新区民治街道深圳北站深1F13,22.610374,114.029649
人民广场地铁站,上海市,上海市上海市,,上海市黄浦区轨道交通一号线人民广场地铁站 1-110商铺,31.232999,121.474106
上海平安滨江金融中心店,上海市,上海市上海市,,上海市黄浦区蒙自路757号1楼106单元,31.19754,121.48196
浦江双辉店,上海市,上海市上海市,,上海市浦东新区银城路9-99号地下一层01单元,31.2421146,121.50963801
嘉兴九曲里店,嘉兴市,浙江省嘉兴市,,浙江省嘉兴市南湖区九曲里4号楼地上一、二层4-商06单元及4-商12单元,30.7402432014321,120.795489907068
天津新城吾悦广场店,天津市,天津市天津市,,天津市津南区咸水沽镇二八公路与同砚路交口新城吾悦广场7号楼底商1-55号一层1060号铺位,38.97884450726677,117.37494707107545
盐城中南城店,盐城市,江苏省盐城市,,江苏省盐城市盐都区解放南路278号中南城1020、2015单元,33.32100602,120.17968913
金谊广场店,上海市,上海市上海市,,上海市浦东新区上南路4467号金谊广场1层-1室,31.140257,121.513527
秦皇岛乐都汇咖啡店,秦皇岛市,河北省秦皇岛市,,秦皇岛市海港区河北大街中段115号乐都汇零售商区一层,39.93398737209157,119.6043169496261
长沙开福万达II店,长沙市,湖南省长沙市,,长沙市开福区中山路589号开福万达2号门旁1楼,28.198895,112.970126
深圳深业上城B1F店,深圳市,广东省深圳市,,广东省深圳市福田区皇岗路5001号深业上城（南区）一期零售商区的负一层的自编M15单元,22.5570612169073,114.07088398933412
广州南站3层夹层B区店,广州市,广东省广州市,,广州市番禺区广州南站商业夹层广3-25-1铺,22.988812,113.268341
大悦城店,上海市,上海市上海市,,上海市闸北区西藏北路166号第三层301-16单元,31.242977,121.472054
美罗城店,上海市,上海市上海市,,上海市徐汇区肇家浜路1111号219单元,31.193266,121.43972
南车站路店,上海市,上海市上海市,,上海市黄浦区南车站路600弄20号F栋甲,31.20311807,121.49396662
浦东机场T2国际出发D75,上海市,上海市上海市,,上海浦东机场2号航站楼3楼国际出发禁区D75号登机口,31.15170747813368,121.81005477905273
柏树大厦店,上海市,上海市上海市,,上海市虹口区中山北一路1230号A102-1室,31.29086643932735,121.48854804048825
天津富力广场店,天津市,天津市天津市,,天津市南开区北马路127号富力广场1层101号商铺,39.14596791,117.17301936
天津巨川金海岸店,天津市,天津市天津市,,天津市滨海新区学校大街529号,39.01554322,117.66921225
成都奥克斯广场店,成都市,四川省成都市,,四川省成都市高新区南部新区科技创业中心片区,30.57581289,104.06044098
杭州滨江和瑞科技园店,杭州市,浙江省杭州市,,浙江省杭州市滨江区长河街道长河路475号,30.18597963,120.19535373
杭州萧山旺角城店,杭州市,浙江省杭州市,,浙江省杭州市萧山区市心中路123-A号顺发旺角城新天地金座7幢101-1号,30.170648,120.266377
唐山百货大楼店,唐山市,河北省唐山市,,唐山市路北区新华东道125号百货大楼一层,39.62591541,118.18106931
松江塞纳左岸生活广场店,上海市,上海市上海市,,上海市松江区文诚路500弄1号L22-1,31.03290718,121.21678036
沈阳桃仙机场到达门店,沈阳市,辽宁省沈阳市,,沈阳市浑南区机场路199-1号沈阳桃仙国际机场T3航站楼一层到达区CY-14,41.632732,123.493526
常州武进万达广场店,常州市,江苏省常州市,,江苏省常州市武进区花园街301号,31.73391997,119.94852469
南通CBD大有境A座店,南通市,江苏省南通市,,江苏省南通市崇川区桃园路12号,31.96861864277957,120.89275753511176
漫游城步行街店,上海市,上海市上海市,,上海市闵行区万源南路99弄6号107、108室,31.13378556,121.3976046
黄石中商百货店,黄石市,湖北省黄石市,,湖北省黄石市黄石港区武汉路29号1F101号铺位,30.21224796000281,115.0859191744894
徐州三胞广场店,徐州市,江苏省徐州市,,江苏省徐州市泉山区解放南路26-8号三胞广场一层L114单元,34.223236,117.19516
佛山万科金域店,佛山市,广东省佛山市,,佛山市南海区桂城街道永胜东路4号万科金域花园 1 区 24 座 24-101-3铺,23.06354381994241,113.17225813865664
深圳来福士广场臻选店,深圳市,广东省深圳市,,广东省深圳市南山区南海大道2163号深圳来福士广场地上一层19号和二层18号,22.5120613905638,113.925677776206
杭州望江国际店,杭州市,浙江省杭州市,,浙江省杭州市上城区望江东路332号望江国际中心3号楼一层102号商铺,30.230243,120.192449
沈阳中街新玛特店,沈阳市,辽宁省沈阳市,,沈阳市大东区小东路2号,41.80207677,123.46487532
福州苏宁广场分店,福州市,福建省福州市,,福州市台江区工业路233号福州苏宁广场B区第一层141单元,26.06111042417228,119.28752303123476
苏州国际影视娱乐城店,苏州市,江苏省苏州市,,江苏省苏州市吴中区金山南路288号苏州国际影视娱乐城4#楼,31.278322,120.51725
珠海华发商都分店,珠海市,广东省珠海市,,珠海市珠海大道8号华发商都1号楼A1048号商铺,22.22428732,113.50973682
中山广场店,上海市,上海市上海市,,上海长宁区中山西路1065号104室,31.1983874100001,121.41522216
苏州复悦城店,苏州市,江苏省苏州市,,江苏省苏州市姑苏区虎池路1583号,31.3535709742628,120.546227932173
杭州紫荆龙湖天街店,杭州市,浙江省杭州市,,杭州市西湖区三墩镇古墩路1009号龙致商业中心6幢地上第一层的144、145号商铺；,30.3205814232593,120.09221792221
凌空广场店,上海市,上海市上海市,,上海巿长宁区金钟路968号的凌空SOHO广场2号楼2-106室,31.22199647,121.35332113
九江联盛快乐城,九江市,江西省九江市,,江西省九江市经济技术开发区京九路9号联盛快乐城1F,29.70194354,115.97191409
深圳侨城坊店,深圳市,广东省深圳市,,深圳市南山区侨香路4080号侨城坊12号楼1层BL101,22.55209014,113.98017557
佛山季华园店,佛山市,广东省佛山市,,佛山市禅城区季华五路12号新城市商业广场首层F1F0022单元,23.011442,113.107508
西宁海湖万达店,西宁市,青海省西宁市,,青海省西宁市海湖新区海湖万达广场购物中心1F,36.64300593,101.71634375
重庆西城天街店,重庆市,重庆市重庆市,,重庆市九龙坡区杨家坪珠江路48号龙湖-西城天街购物广场1楼,29.509977,106.516727
品尊国际广场店,上海市,上海市上海市,,上海市普陀区铜川路58弄21-22号,31.25609,121.41995
深圳大冲喜悦里店,深圳市,广东省深圳市,,深圳市南山区粤海街道大冲社区大冲新城花园2栋2D座1-391,22.54158396194566,113.95185828208925
杭州滨江阿里中心店,杭州市,浙江省杭州市,,浙江省杭州市滨江区长河街道滨兴路1866号阿里中心·杭州滨江园区5号楼1楼1a室,30.191117777025966,120.19123434889482
广州中国联通大厦店,广州市,广东省广州市,,广州市黄埔大道西666号首层102单元102，,23.125195,113.345081
嘉兴桐乡东兴生活广场店,嘉兴市,浙江省嘉兴市,,浙江省嘉兴桐乡市庆丰北路900号一层001单元,30.65346716,120.54752298
廊坊燕郊永旺梦乐城店,廊坊市,河北省廊坊市,,河北省三河市G102国道27号永旺梦乐城1层192号,39.94857296,116.86479325
杭州新禾联创公园店,杭州市,浙江省杭州市,,浙江省杭州市江干区九华路1号13号楼1楼102商铺,30.319368,120.26033
真华路店,上海市,上海市上海市,,上海市宝山区真华路928号一层101室,31.27135716313173,121.41108691692354
萧山国际机场T3禁区店,杭州市,浙江省杭州市,,浙江省杭州萧山国际机场T3航站楼出发层禁区内,30.237492,120.436451
新华联购物中心店,上海市,上海市上海市,,上海市闵行区申滨路473号一层L1-09单元,31.20124346,121.30896213
深圳盐田壹海城2店,深圳市,广东省深圳市,,广东省深圳市盐田区海景二路壹海城III期地上一层L1-005A单元,22.552800686092066,114.23907458782197
太原市天美新天地门店,太原市,山西省太原市,,太原市小店区长风街113号天美新天地一层星巴克,37.819654,112.562914
松江明中广场,上海市,上海市上海市,,上海市松江区明中路1885号零售商区1层01单元,31.0729,121.32139
北京小米科技园1店,北京市,北京市北京市,,北京市海淀区西二旗中路小米科技园G座一层,40.04804728452732,116.31802797317506
上海复兴荟店,上海市,上海市上海市,,上海市黄浦区盐城路58号,31.2173598963851,121.484093427461
广州东风中路颐德大厦店,广州市,广东省广州市,,广州市越秀区东风中路 362 号首层103 铺和二层204 铺号,23.1308761,113.27077519
惠州东江新城店,惠州市,广东省惠州市,,广东省惠州市惠城区旭日一路1号中信水岸城花园商业中心一层2、3、4号商铺,23.07533949511861,114.44942951202394
苏州科文中心店,苏州市,江苏省苏州市,,江苏省苏州工业园区观枫街1号苏州科技文化艺术中心103商铺,31.3205265188091,120.703358173305
苏州金鹰店,苏州市,江苏省苏州市,,江苏省苏州市高新区狮山路298号苏州高新金鹰商业广场1层1-03单元,31.2933876708188,120.550399303174
重庆泽科星泽汇店,重庆市,重庆市重庆市,,重庆市南岸区群慧路7号泽科新泽汇购物中心L1-30号,29.583578,106.592585
东航云锦天地店,上海市,上海市上海市,,上海市徐汇区龙兰路277号第一层3102单元,31.16614289,121.45758372
西安汉神百货店,西安市,陕西省西安市,,西安未央经济技术开发区凤城七路与文景路路口汉神百货一层,34.338344,108.937126
重庆袁家岗城开中心店,重庆市,重庆市重庆市,,重庆市九龙坡区袁家岗奥体路1号,29.52902089450931,106.51271080983862
杭州下沙银泰城店,杭州市,浙江省杭州市,,杭州市经济技术开发区海达南路397号一层1A-01号单元,30.299157,120.325885
三亚蓝海华庭店,三亚市,海南省三亚市,,三亚市吉阳区新风街279号蓝海华庭购物中心首层,18.253206,109.514001
武汉裕亚银湖城店,武汉市,湖北省武汉市,,湖北省武汉市东西湖区金银湖路6号金湖御品S1#裙楼地上一层1-01单元,30.630328346064072,114.20384109020235
深圳西丽大学城店,深圳市,广东省深圳市,,深圳市南山区丽水路西丽大学城汇丰商学院首层,22.58964678,113.97279889
徐州淮海新天地店,徐州市,江苏省徐州市,,江苏省徐州市泉山区新淮海西路10号 2号楼 1-101、102、120、121、122单元,34.263416,117.1493
泉州东海泰禾广场二店,泉州市,福建省泉州市,,福建省泉州市丰泽区泉州之眼摩天轮东海泰禾广场16号楼101-102铺位,24.872746,118.638458
成都软件园2期店,成都市,四川省成都市,,成都市高新区世纪城南路215号,30.54138,104.074005
苏州望湖大厦店,苏州市,江苏省苏州市,,江苏省苏州市工业园区嘉瑞巷18号105、106单元,31.324362,120.71848
南京清江苏宁广场店,南京市,江苏省南京市,,南京市鼓楼区江东北路88号清江苏宁广场104&202铺位,32.0448,118.740906
广州花城湾店,广州市,广东省广州市,,广东省广州市天河区花城大道86号1层107A单元和107A-1单元,23.118427,113.331429
洛阳中州路王府井店,洛阳市,河南省洛阳市,,洛阳市西工区中州中路429号王府井百货一楼,34.66903823653054,112.4349757431628
杭州中央广场店,杭州市,浙江省杭州市,,杭州市拱墅区武林广场11号B118号商铺,30.27146986958966,120.16260080374197
南京六合欢乐港店,南京市,江苏省南京市,,江苏省南京市六合区龙津路48号第一层的1025a单元,32.33637821806972,118.8385856151581
广州正佳万豪店,广州市,广东省广州市,,广州市天河区天河路228号正佳万豪酒店首层101铺,23.13260909,113.32622444
宁波书城店,宁波市,浙江省宁波市,,浙江省宁波市江东区宁波书城文化广场1幢1、2、 3、 4号1-1-3,29.87643479,121.56552522
青岛城阳万达广场店,青岛市,山东省青岛市,,青岛市城阳区正阳中路117号星巴克咖啡厅,36.30593065273849,120.42163610458375
台州黄岩吾悦广场店,台州市,浙江省台州市,,浙江省台州市黄岩区大桥路1号台州黄岩吾悦广场一层1001单元,28.65486923484146,121.261516809318
杭州新天地中心店,杭州市,浙江省杭州市,,浙江省杭州市下城区长浜路718号新天地中心第一层1001单元,30.321928,120.180177
申北路店,上海市,上海市上海市,,上海市闵行区申北路8号,31.09215318,121.38620118
深圳留仙洞店,深圳市,广东省深圳市,,深圳市南山区留仙大道天悦南湾厂商首层L115号商铺,22.58104873,113.94447549
大连西安路锦辉广场店,大连市,辽宁省大连市,,大连市黄河路667号锦辉购物广场一层南门旁边,38.91117078,121.58855436
杭州世纪联华鲸选店,杭州市,浙江省杭州市,,浙江省杭州市拱墅区西湖文化广场B1层世纪联华1B002号商铺,30.27647665,120.1635136
西安未央路王府井店,西安市,陕西省西安市,,陕西省西安市未央区凤城七路王府井百货一层1F-3号商铺,34.337734,108.945877
外滩金融中心办公楼店,上海市,上海市上海市,,上海市黄浦区中山东二路600号1幢1楼东侧,31.225594,121.498512
杭州中大银泰城店,杭州市,浙江省杭州市,,浙江省杭州市下城区东新路822号中大银泰城一层L108单元,30.32686037278009,120.1748310328185
三亚航空城店,三亚市,海南省三亚市,,海南省三亚市天涯区凤凰镇凤凰路581号凤凰机场国内航站楼前站前综合体C栋C321铺位,18.3084242,109.41148829
郑州万锦盛华里店,郑州市,河南省郑州市,,郑州市航海东路1336号万锦151单元,34.7215170304246,113.75350892543794
天津国际大厦店,天津市,天津市天津市,,天津市南京路75号天津国际大厦一层,39.11637698,117.20913555999999
淮安万达店,淮安市,江苏省淮安市,,江苏省淮安市清河区翔宇中路169号1-07~1-08号铺位,33.59900283,119.04787445
杭州余杭江南时代店,杭州市,浙江省杭州市,,浙江省杭州市余杭区余杭街道江南时代购物中心105室、106室、107室、108室、109室-1、110室-1、111室-1,30.25933826534025,119.95041221380237
北京广渠门名敦道店,北京市,北京市北京市,,北京市东城区广渠家园3号楼1层,39.89310554,116.44757618
虹口龙之梦办公楼店,上海市,上海市上海市,,上海市虹口区西江湾路388号(A)01层56号,31.27044839856053,121.47873544679896
虹口运动loft店,上海市,上海市上海市,,上海市虹口区同心路723号11幢102室,31.27130256,121.47334029
西安泰华金贸国际店,西安市,陕西省西安市,,西安市高新科技二路与沣惠南路交汇处西南角,34.2246257885974,108.886740153575
扬州珍园店,扬州市,江苏省扬州市,,江苏省扬州市广陵区文昌中路492号,32.39446642592553,119.438493847847
临沂万象汇店,临沂市,山东省临沂市,,临沂市兰山区沂蒙路159号万象汇122商铺,35.05617244439393,118.34275245666505
深圳海岸城4楼店,深圳市,广东省深圳市,,深圳市南山区文心5路33号海岸城购物中心4楼432号铺,22.51721467,113.93523514
杭州信义坊店,杭州市,浙江省杭州市,,浙江省杭州市拱墅区湖墅南路488号物业地上1层101-16号及地上2层201-1号,30.29450068,120.14690659
成都汇锦广场店,成都市,四川省成都市,,成都市高新区盛华北路213号1层,30.55669283399122,104.05364441861823
钦州钦州湾大道店,钦州市,广西壮族自治区钦州市,,钦州市钦州湾大道82号阳光丽城一期A18单元,21.97541438225942,108.62768948078157
济南老商埠咖啡店,济南市,山东省济南市,,济南市中区经四路333号老商埠8号楼1层及2层整层,36.66158096,116.99261463
杭州西溪龙湖天街店,杭州市,浙江省杭州市,,杭州市西湖区蒋村街道余杭塘路1001号花蒋天街商业中心2号楼地上一层1号、2号、3号；,30.2922748510242,120.069601535797
广州东风西路店,广州市,广东省广州市,,广州越秀区东风西路140号101铺自编02号东方金融大厦首层,23.133188,113.249136
天津武清大光明店,天津市,天津市天津市,,天津市武清区杨村街泉州路西侧新光广场地上一层1-51、1-52号铺位天津市武清区杨村街泉州路西侧新光,39.387747,117.059474
深圳海上世界店,深圳市,广东省深圳市,,深圳南山区蛇口兴华路海上世界南山宾馆113号铺,22.48352179,113.91536863
大连百年港湾店,大连市,辽宁省大连市,,大连市西岗区香炉礁海达北街83A-4,38.93168,121.606483
佛山罗村金盛广场店,佛山市,广东省佛山市,,佛山市南海区罗村街道府前路金盛广场141.142号铺,23.057537006007074,113.05254042148592
泸州市佳乐欢乐汇店,泸州市,四川省泸州市,,泸州市江阳区华升南路6号楼1号欢乐汇一期地上一层1040，1041单元,28.89498628271834,105.40916204452515
广州市广路店,广州市,广东省广州市,,广州市番禺区誉瀛内街1号101、誉瀛内街3号101、誉瀛外街2号101、誉瀛外街4号101,22.967955839640968,113.34680557250978
北京常通路HP臻选店,北京市,北京市北京市,,北京市朝阳区常营乡龙湖长楹天街东区一层0龙湖长楹天街东区一层01号,39.92517243824388,116.60037875175477
唐镇阳光城店,上海市,上海市上海市,,上海市浦东新区高科东路777弄1号L102商铺,31.21412643768017,121.65703690032387
包头万达广场咖啡店,包头市,内蒙古自治区包头市,,包头市青山区青年路26号万达广场1层173B和175号,40.65835056,109.85304534
景洪融创茂店,景洪市,云南省景洪市,,西双版纳景洪市北环路融创茂,22.01468889038817,100.76649427413942
南京保利樾广场店,南京市,江苏省南京市,,南京市江宁区经贸学院路8号,31.93357867685934,118.88941884040834
绍兴上虞万达广场店,绍兴市,浙江省绍兴市,,浙江省绍兴市上虞区称山北路399号一层1033号商铺,30.0531819632824,120.844772815181
东莞虎门天虹店,东莞市,广东省东莞市,,东莞市虎门镇金洲社区虎门地标广场天虹商场第1层1200号,22.809205,113.687004
天津天佑城咖啡店,天津市,天津市天津市,,天津市南开区西马路与南马路交口 天佑城商场一层101-102单元,39.13836334,117.17266949
北京光华路咖啡店,北京市,北京市北京市,,北京市朝阳区光华路15号院1号楼106,39.91418008495277,116.47015750408174
太仓华旭财富中心店,苏州市,江苏省苏州市,,江苏省太仓市城厢镇人民路95号,31.44517602293151,121.10845863819124
松江新理想广场店,上海市,上海市上海市,,上海松江区荣乐西路790号1F-14,31.0168803,121.19741165
北京宝钢大厦店,北京市,北京市北京市,,北京市朝阳区建国门外大街丙12号宝钢大厦1层,39.907505,116.446134
成都中海环宇荟店,成都市,四川省成都市,,四川省成都市高新区交子大道277号,30.58168172482565,104.05653047666422
北京国奥村咖啡店,北京市,北京市北京市,,北京朝阳区林萃东路2号院甲3号楼一层F106区域,40.00927952,116.38155714
航运金融大厦店,上海市,上海市上海市,,上海市浦东新区浦东大道720号国际航运金融中心大厦大堂,31.239899,121.524796
台州玉环吾悦广场店,台州市,浙江省台州市,,浙江省台州市玉环市双港路8号吾悦广场一层1001单元,28.115227,121.226433
南京学则路梦天地店,南京市,江苏省南京市,,江苏省南京市栖霞区学衡路1号一层11单元,32.092252,118.917169
广州东峻广场店,广州市,广东省广州市,,广州市越秀区东风东路 836 号东峻广场地上一层28 - 29 号铺,23.13165973,113.30669852
马鞍山八佰伴店,马鞍山市,安徽省马鞍山市,,安徽省马鞍山市花山区大华马鞍山国际广场2-1号,31.68221099279595,118.50973820699438
北京新辰里购物中心店,北京市,北京市北京市,,北京市朝阳区北辰东路8号1号楼1层102号003,39.99141146,116.40676067
昆明同德广场店,昆明市,云南省昆明市,,昆明市盘龙区北京路928号 同德广场一层,25.067873,102.723952
静安紫苑店,上海市,上海市上海市,,上海市静安区江宁路388号1-2层,31.23395853364611,121.45310854924902
无锡八佰伴店,无锡市,江苏省无锡市,,无锡市中山路168号八佰伴一层F1018C商铺,31.57173347,120.30305575
杨浦百联滨江购物中心店,上海市,上海市上海市,,上海市杨浦区宁国路218号L1层1A-024室,31.2643986086934,121.537641048399
杭州银泰店,杭州市,浙江省杭州市,,浙江省杭州市拱墅区延安路530号,30.2680679191976,120.164206266272
大华乐购店,上海市,上海市上海市,,上海市宝山区大华路518号乐购大华店第一层的S1、S2单元,31.27084180022192,121.41456520570502
厦门湖里大道店,厦门市,福建省厦门市,,中国（福建）自由贸易试验区厦门片区厦门市湖里大道22号地上第一层的101、102单元,24.51091373,118.09749419
深圳坂田天虹分店,深圳市,广东省深圳市,,深圳市坂田吉华路与五和大道交汇处坂田天虹首层,22.63441596,114.05904717
苏州甪直万嘉生活广场店,苏州市,江苏省苏州市,,江苏省苏州市吴中区甪直镇鸣市路18号万嘉生活广场1层132单元,31.26698749309693,120.8654783961538
汇京国际广场店,上海市,上海市上海市,,上海市徐汇区淮海西路555号1楼103单元,31.1958206,121.42311349
武汉宝利金店,武汉市,湖北省武汉市,,武汉市江汉区花楼街198号1楼,30.57816162854057,114.29280245291014
台州东森店,台州市,浙江省台州市,,浙江省台州市路桥区西路桥大道130号东森购物中心B101单元及B206单元,28.58536474,121.36793439
苏州北站店,苏州市,江苏省苏州市,,江苏省苏州市相城区南天成路苏州北站SZB-JQ-03B号,31.4210762201551,120.644157528877
陆家嘴软件园店,上海市,上海市上海市,,上海市浦东新区峨山路91弄98号陆家嘴软件园1号楼1楼,31.2175131249847,121.531924724513
兰州城关万达店,兰州市,甘肃省兰州市,,兰州市城关区天水北路68号万达广场一层,36.06361423464986,103.86220335960388
天津鲁能中心第二咖啡店,天津市,天津市天津市,,天津市南开区天塔道北侧鲁能城购物中心1F-11号商铺,39.09492459,117.17540001
成都太古里店,成都市,四川省成都市,,成都市锦江区中纱帽街8号成都远洋太古里一期商业楼宗地二上12栋商业楼第一层1215号,30.652508442862,104.083163738251
广州中华广场B1层店,广州市,广东省广州市,,广州市中山三路33号中华广场负一层A23号铺,23.12638285,113.28299862
绍兴柯桥万达南门店,绍兴市,浙江省绍兴市,,"绍兴市柯桥区钱陶路799号一层1F-11,1F-12商铺",30.0929209673077,120.509703755379
青岛海信广场店,青岛市,山东省青岛市,,青岛市澳门路117号海信广场地下一层055-3号,36.06034078,120.39532485
东莞桥头上悦汇店,东莞市,广东省东莞市,,广东省东莞市桥头镇桥头社区桥光大道165号,23.01862195725598,114.09801721572877
金桥太茂店,上海市,上海市上海市,,上海市浦东新区金高路1882号第一层105单元,31.2663464689223,121.608321547574
重庆万象城1店,重庆市,重庆市重庆市,,重庆市九龙坡区谢家湾正街（万象城南区）LG层145号,29.51520101523476,106.5182436703981
南通万科广场店,南通市,江苏省南通市,,南通市港闸区北大街108号万科金域广场1层108单元,32.04927253,120.8610511
唐镇来安路店,上海市,上海市上海市,,上海市浦东新区来安路686号E2033,31.247002,121.674067
淮海花园店,上海市,上海市上海市,,上海市长宁区淮海西路280号101室,31.2002621,121.42908903
北京大学医学部产业楼店,北京市,北京市北京市,,北京市海淀区学院路38号十一区22幢一层A01号,39.9818062033092,116.3566303253174
江镇新都汇店,上海市,上海市上海市,,上海市浦东新区祝桥镇江晖路409弄51号一层5室,31.1728910668431,121.739416122437
南京缤润汇购物中心店,南京市,江苏省南京市,,江苏省南京市建邺区楠溪江东街83号一层104铺位,31.993475,118.729668
西安华润万象城店,西安市,陕西省西安市,,西安市未央区三桥地铁站B出口华润万象城一楼,34.29012787,108.8307171
广州白云岭南新世界店,广州市,广东省广州市,,广州市白云区百顺北路1号首层L119单元,23.235678,113.292396
泰州中国医药城店,泰州市,江苏省泰州市,,江苏省泰州医药高新区药城大道1号东方小镇欧洲街B-1组团的a-8~b-4单元,32.39491847937087,119.90447509295338
泰州姜堰万家福广场店,泰州市,江苏省泰州市,,江苏省泰州市姜堰区姜堰大道380号万家福广场1层111号,32.50956687,120.14394112
淮安吾悦广场店,淮安市,江苏省淮安市,,淮安市清江浦区凤里路1号,33.551521577721964,119.12244415274475
浙江省人民医院店,杭州市,浙江省杭州市,,浙江省杭州市下城区上塘路158号省人民医院1号楼一层,30.28533126795019,120.1675182580948
苏州凤凰街店,苏州市,江苏省苏州市,,江苏省苏州市姑苏区凤凰街148号02单元,31.30255,120.632496
南通如皋吾悦广场店,南通市,江苏省南通市,,南通市如皋市惠政路168号一层1062号商铺,32.3695278,120.57739812
泰州泰兴吾悦广场店,泰州市,江苏省泰州市,,江苏省泰州市泰兴市鼓楼北路199号S-1号楼1楼1065-2单元,32.17751040870361,120.01666331343588
天津恒隆广场咖啡店,天津市,天津市天津市,,天津市和平区兴安路166号天津恒隆广场二层2010铺位,39.12808142,117.19987024
南京燕子矶花园城店,南京市,江苏省南京市,,江苏省南京市栖霞区燕城大道1号第一层的1F-101单元,32.12215906994997,118.83406609296802
北京远大路金源燕莎店,北京市,北京市北京市,,北京市海淀区远大路1号金源燕莎Mall首层1016,39.95820798978128,116.28803551197053
沈阳北行千盛店,沈阳市,辽宁省沈阳市,,沈阳市皇姑区长江街99号北行千盛百货一层,41.82615166232455,123.4136348962784
深圳龙岗宝能店,深圳市,广东省深圳市,,深圳市龙岗区中心城建设路宝能 All city L1-01、02号铺,22.72456911,114.24810212
北京畅春园店,北京市,北京市北京市,,北京市海淀区颐和园路8号,39.98859637,116.3046813
北京亚运村华堂店,北京市,北京市北京市,,北京市朝阳区北四环东路108号千鹤家园5号楼1层F1-1001单元,39.98819024,116.42113134
杭州乐富智汇园店,杭州市,浙江省杭州市,,杭州市拱墅区祥园路28号107、108商铺,30.33488288915479,120.1114672421318
天津洞庭路中冶和悦汇店,天津市,天津市天津市,,天津市河西区黑牛城道与内江北路交口西北侧七贤南里（D块地）第一层的130、131单元,39.08087176,117.24231632
北京西小口路店,北京市,北京市北京市,,北京市海淀区西小口路66号中关村东升科技园B区6号楼C座一层101室,40.04678658056526,116.35720968246461
西安金桥店,西安市,陕西省西安市,,西安市高新区科技路50号金桥国际广场BC座一楼,34.235436,108.892603
广州番禺金山谷店,广州市,广东省广州市,,广州市番禺区东环街东艺路139号金山谷创意园二期E-9#（30）栋首层111-113号,22.980895778349296,113.34429502487184
龙岩万宝广场店,龙岩市,福建省龙岩市,,福建省龙岩市新罗区龙岩大道388 号万宝广场第一层的1026铺,25.084902,117.020248
深圳深业上城3F店,深圳市,广东省深圳市,,福田区皇岗路5001号深业上城（南区）一期零售商区的第三层,22.55657076715501,114.06893134117128
潮州新风路分店,潮州市,广东省潮州市,,潮州市枫溪区财富中心A区地上一层A139、A140、A141店铺,23.64969862497811,116.61020100116731
长春百货大楼店,长春市,吉林省长春市,,长春市朝阳区人民大街1881号长春百货大楼一层、二层,43.89168046,125.32392645
杭州世茂茂宸金座店,杭州市,浙江省杭州市,,杭州市江干区茂宸金座15幢底商1、2、3,30.2749923396297,120.194274902442
成都龙泉万达广场店,成都市,四川省成都市,,成都市龙泉驿区龙泉街道永安路以北  成都龙泉驿万达广场地上1层1001号商铺,30.56593703,104.26963488
苏州锦华苑店,苏州市,江苏省苏州市,,江苏省苏州市高新区狮山路100号A区GF01室,31.294056931852,120.563956260812
宁波青年云创小镇店,宁波市,浙江省宁波市,,浙江省宁波市江北区风华路928弄宁波大学东校门7号楼135/230室,29.91028583752949,121.64220321184987
廊坊新朝阳购物中心店,廊坊市,河北省廊坊市,,廊坊市广阳区爱民东道111号,39.528498340326294,116.72524094581604
赣州步步高新天地店,赣州市,江西省赣州市,,赣州市章贡区红旗大道33号1001,25.849013437106134,114.93960857391359
郑州瀚海海尚店,郑州市,河南省郑州市,,郑州市金水区东风路32号瀚海海尚一楼,34.800757,113.646874
天津万兆新文化花园店,天津市,天津市天津市,,天津市和平区南市街福安大街新文化花园新丽居底商-102,39.1295607,117.18353209
北京市飘亮阳光广场店,北京市,北京市北京市,,北京市朝阳区安立路68号飘亮广场星巴克,39.997666981804855,116.40852849477598
佛山大良嘉信城市广场店,佛山市,广东省佛山市,,顺德大良新区兴顺路嘉信城市广场一期204-207号商铺,22.79605456921243,113.28975927790454
深圳喜荟城店,深圳市,广东省深圳市,,深圳市罗湖区太宁路28号百仕达喜荟城225单元,22.56905662,114.13905802
杭州临平银泰城1F2F店,杭州市,浙江省杭州市,,浙江省杭州市余杭区南苑街道世纪大道西1号第一层128号商铺、第二层224商铺,30.4058860402214,120.30317902565
西郊友谊店,上海市,上海市上海市,,上海市长宁区仙霞西路88号*,31.2092895500001,121.3696899
徐州颐和汇邻湾店,徐州市,江苏省徐州市,,江苏省徐州市泉山区三环南路39号颐和汇邻湾广场一层1001单元,34.21196728,117.18151395
苏州永旺园区店,苏州市,江苏省苏州市,,江苏省苏州市工业园区钟南街238号,31.3231981810776,120.757636428043
昆明恒隆广场店,昆明市,云南省昆明市,,东风路北京路交叉口恒隆广场负一楼,25.03695644134735,102.72030651569368
西安机场2店,西安市,陕西省西安市,,陕西省西咸新区空港新城西安咸阳国际机场T3航站楼安检内3FBb1-1,34.43337582043058,108.76200270646224
广州翡翠绿洲店,广州市,广东省广州市,,广州市增城区新塘镇翡翠绿洲J11-J15号住宅塔楼及商业服务中心2商业裙楼一楼55单元及57单元,23.131323,113.561199
北京金融大街店,北京市,北京市北京市,,北京市西城区金融大家甲9号金融街中心1-101,39.91900107,116.35899519
徐州君盛广场,徐州市,江苏省徐州市,,江苏省徐州市鼓楼区中山北路306号,34.296131,117.19239
上海adidas总部店,上海市,上海市上海市,,上海市徐汇区恭城路160号3楼306单元,31.1966689875537,121.436354397728
正大广场3F店,上海市,上海市上海市,,上海市浦东新区陆家嘴西路168号3F,31.237121,121.500322
北京鲁谷远洋咖啡店,北京市,北京市北京市,,北京市石景山区玉泉路59号院1号楼远洋沁山水1层A001单元,39.90354908,116.2521575
宁波研发园店,宁波市,浙江省宁波市,,浙江省宁波市高新区扬帆路999弄48号宁波研发园B区7号楼1楼,29.885446,121.638668
台州临海紫阳街店,台州市,浙江省台州市,,浙江省台州市临海市紫阳街2号、6号、8号、8-1号,28.83875268,121.11740411
甘河路店,上海市,上海市上海市,,上海市虹口区甘河路181号,31.28920422325509,121.4874966143907
天津万福生活广场店,天津市,天津市天津市,,天津市河北区宁宇家园9号楼/配3-101,39.17974,117.20819
G60萧山服务西区店,杭州市,浙江省杭州市,,浙江省杭州市萧山区浦阳镇,29.973752,120.244786
佛山三水广场店,佛山市,广东省佛山市,,佛山市三水区西南街张边路 9 号三水广场第一层1632单元,23.1722709,112.89402002
北京嘉盛SOHO中心店,北京市,北京市北京市,,北京市朝阳区东三环北路甲19号嘉盛中心首层西侧大堂,39.926746,116.463799
哈尔滨红博购物公园店,哈尔滨市,黑龙江省哈尔滨市,,哈尔滨市南岗区红旗大街301号地下一层公园大街上二区2-12单元,45.757046,126.69857
南京金茂览秀城店,南京市,江苏省南京市,,江苏省南京市鼓楼区中央路201号第一层110店铺,32.07186548143651,118.78355634205946
陆家嘴世纪金融广场店,上海市,上海市上海市,,上海浦东新区杨高南路759号1层03A单元,31.21306205095779,121.53502535846204
深圳公明长春路分店,深圳市,广东省深圳市,,深圳市宝安区公明街道长春路宏汇阁,22.78110906,113.89434078
扬州仪征宝能广场店,扬州市,江苏省扬州市,,江苏省扬州市仪征市解放东路828号仪征宝能城市广场1F 1049-1054号商铺,32.27855884490102,119.20929104089738
成都铁建广场店,成都市,四川省成都市,,成都市成华区东华一路47号一层,30.679845,104.143126
南通八佰伴店,南通市,江苏省南通市,,江苏省南通市人民中路47号南通八佰伴1楼1-1铺位,32.01726129,120.86589851
嘉兴海宁爱琴海购物公园,嘉兴市,浙江省嘉兴市,,浙江省嘉兴市海宁市工人路85号一层101单元,30.527613,120.6921
海口美兰机场分店,海口市,海南省海口市,,海口美兰国际机场机场控制区内15号、16号登机门之间店铺,19.93853,110.462181
南京大厂慕斯荟店,南京市,江苏省南京市,,江苏省南京市六合区葛关路380-1号,32.23158478651426,118.76151931279313
广州琶洲保利国际广场店,广州市,广东省广州市,,广州市海珠区琶洲大道东3号保利国际广场零售商区首层112号铺,23.103136,113.37326
福州长乐长山湖分店,福州市,福建省福州市,,福建省福州长乐市航城街道广场路 39 号长山湖购物广场第一层的 1-17 单元,25.95599361,119.49983539
南通海门龙信广场店,南通市,江苏省南通市,,江苏省南通市海门市长江南路99号1楼1001单元,31.88022506,121.18509328
溧阳上河城店,常州市,江苏省常州市,,江苏省溧阳市天目路12号上河城1层A101-A102单位,31.426081,119.479787
上海曹路荣欣广场店,上海市,上海市上海市,,上海市浦东新区金钻路828弄4号106-109室,31.2803297124978,121.676523685455
白玉兰广场LG1店,上海市,上海市上海市,,上海市虹口区东长治路588号白玉兰广场商场LG1楼层LG1-M34商铺,31.2496131876205,121.498285531998
湛江金沙湾店,湛江市,广东省湛江市,,湛江市赤坎区观海北路8号万象金沙湾广场购物中心一层01-12号商铺,21.26702303,110.393768
长沙阿波罗商业广场店,长沙市,湖南省长沙市,,湖南省长沙市芙蓉区八一路1号阿波罗商业广场1楼,28.19690629924606,113.00934183604116
武汉宜家店,武汉市,湖北省武汉市,,湖北省武汉市硚口区工农路长宜路宜家购物中心6-11-03-SU单元,30.616965,114.167716
天津和平路咖啡店,天津市,天津市天津市,,天津市和平区和平路263号天津天津天河城购物中心一层123号商铺,39.12660395,117.20397379
上海K11购物艺术中心店,上海市,上海市上海市,,上海市黄浦区淮海中路300号一楼106室,31.223741,121.473545
羽山路店,上海市,上海市上海市,,上海市浦东新区羽山路116-118号,31.2299871263982,121.538360953527
玛瑙路店,上海市,上海市上海市,,上海市长宁区虹桥路1438号,31.19777283,121.40371711
佛山铂顿店,佛山市,广东省佛山市,,佛山市禅城区建新路111号铂顿城第1层1F033、034单元,23.026716,113.1134
广州五号停机坪西区店,广州市,广东省广州市,,广州市白云区云霄路自编353号,23.18157151,113.26420676
北京未来中心咖啡店,北京市,北京市北京市,,北京市昌平区英才南一街3号院1号楼103,40.116478,116.478505
无锡京东广场店,无锡市,江苏省无锡市,,江苏省无锡市崇安区广南路388号,31.590316,120.336978
杭州萧山市心桥新华书店,杭州市,浙江省杭州市,,浙江省杭州市萧山区城厢街道市心南路88号,30.162733,120.26725
大连圣亚鲸Mall店,大连市,辽宁省大连市,,大连市沙河口区中山路608-8号中山路608-8号鲸Mall一层101号,38.87943276064718,121.57265782356264
金华浦江人民广场店,金华市,浙江省金华市,,浙江省金华市浦江县和平北路71、73和75号商铺,29.45843150309457,119.8893613814653
西安群光广场店,西安市,陕西省西安市,,西安市新城区东大街301号群光广场一层1D03单元,34.26050988073581,108.9546488092674
太原万象城店,太原市,山西省太原市,,山西省太原市万柏林区长兴路5号华润中心万象城一层L140,37.80653686,112.52972694
南京金融城店,南京市,江苏省南京市,,江苏省南京市建邺区嘉陵江东街101号,31.98954193364998,118.718438744545
沈阳大悦城店,沈阳市,辽宁省沈阳市,,沈阳市大东区小东路5号沈阳大悦城B座B101号,41.80160316,123.46607364
济南浪潮科技园店,济南市,山东省济南市,,高新区浪潮路1036号浪潮科技园科研楼,36.66166318540025,117.12790489196779
杭州富阳银泰店,杭州市,浙江省杭州市,,浙江省杭州富阳市春秋北路271-1号银泰百货,30.060338,119.941509
江门市大槐服务区西区店,江门市,广东省江门市,,恩平市大槐镇大槐村西区101号铺,22.06916,112.22102
中山公园龙之梦1F店,上海市,上海市上海市,,上海市长宁区长宁路1018号1F1073号商铺,31.21867909,121.41682815
长沙北辰凤凰海店,长沙市,湖南省长沙市,,晴岚路68号北辰凤凰海购物公园一层L1-013单元,28.23703698003918,112.98369348049167
大连机场到达店,大连市,辽宁省大连市,,辽宁省大连市甘井子区迎客路168号大连周水子国际机场二期航站楼一层到达厅9号门旁铺位,38.96201486,121.54309912
世贸商城店,上海市,上海市上海市,,上海市长宁区延安西路2299号,31.2017311001355,121.400891303492
南京21世纪太阳城店,南京市,江苏省南京市,,江苏省南京市江宁区双龙大道1539号J1-F1-25A铺位,31.92745616776825,118.82496213926062
周浦绿地缤纷广场店,上海市,上海市上海市,,上海市浦东新区年家浜路238号1楼101单元,31.1136383,121.59398295
北京首都国际机场八店,北京市,北京市北京市,,北京首都国际机场T3航站楼D区2层,40.067352,116.612816
镇江扬中雨润中央店,镇江市,江苏省镇江市,,江苏省镇江市扬中市三茅镇江洲西路8号,32.23867122,119.82688733
南昌T16购物中心店,南昌市,江西省南昌市,,江西省南昌市青山湖区庐山南大道369号T16购物中心一楼西南门,28.70064,115.867203
北京通州贵友店,北京市,北京市北京市,,北京市通州区云景东路1号贵友大厦地上一层,39.88351638,116.66652506
舟山太平洋百货店,舟山市,浙江省舟山市,,浙江省舟山市定海区解放西路106号一楼007室,30.0155717765898,122.103425860296
龙吴路店,上海市,上海市上海市,,上海闵行区龙吴路5555号108-109单元,31.04277572,121.46771435
汤臣店,上海市,上海市上海市,,上海市浦东新区东方路710号汤臣金融中心,31.22925746,121.52429345
览海国际广场店,上海市,上海市上海市,,上海市浦东新区世纪大道160号览海国际广场一层,31.23483003751518,121.50863885879518
泰州姜堰时代广场店,泰州市,江苏省泰州市,,泰州市姜堰区西大街145号、人民路65号-1、人民路67号-1,32.5037276715291,120.147840499812
奉贤南桥百联店,上海市,上海市上海市,,上海市奉贤区南桥镇百齐路588号百联南桥购物中心一楼,30.9144124398084,121.484885215759
苏州拙政园店,苏州市,江苏省苏州市,,江苏省苏州市姑苏区东北街168号A组6室,31.32358106,120.63116005
正大乐城6幢店,上海市,上海市上海市,,上海市徐汇区龙华中路598号6号楼103室,31.1865182560435,121.458701491355
成都锦里店,成都市,四川省成都市,,四川省成都市武侯祠大街231号,30.644964,104.049835
西安兰岛广场店,西安市,陕西省西安市,,西安市高新区科技六路4号兰岛广场一楼,34.21134200312547,108.90155521294221
苏州昆山招商花园城店,苏州市,江苏省苏州市,,江苏省苏州市昆山市萧林中路666号九方城一楼1-025室,31.40456181711305,120.95778930193777
南通文峰广场店,南通市,江苏省南通市,,江苏省南通市崇川区虹桥路1号A区一 层1001单元，二 层2001 单元,31.99675672803171,120.8841068747279
郑州绿地千玺店,郑州市,河南省郑州市,,郑州市郑东新区CBD绿地千玺广场御湖道星巴克,34.770846,113.727736
青岛诺德广场店,青岛市,山东省青岛市,,青岛市市北区敦化路328号诺德广场101,36.091897,120.381124
中山石岐大信新都汇店,中山市,广东省中山市,,中山市石岐区大信南路2号大信新都汇广场一层及二层的1FA02号单元,22.53225086032894,113.38167786609122
深圳水贝金展广场店,深圳市,广东省深圳市,,广东省深圳市罗湖区水贝一路金展珠宝广场地上一层的001单元,22.56934161844,114.127942182968
成都汇融广场门店,成都市,四川省成都市,,成都市新都区大丰镇方元路55号,30.765969216385688,104.06360507011415
襄阳航空路民发广场店,襄阳市,湖北省襄阳市,,襄阳市襄州区航空路47号民发广场101单元,32.07550032841989,112.18039236315236
深圳北站出发A区夹层店,深圳市,广东省深圳市,,深圳市龙华新区民治街道深圳北站高架夹层深 2-01,22.608362,114.029237
苏州丰隆城市中心店,苏州市,江苏省苏州市,,江苏省苏州市工业园区钟园路788号108单元,31.3164652640294,120.716593265861
杭州博货国际购物广场店,杭州市,浙江省杭州市,,杭州市余杭区博卡路16号杭州博货国际购物广场博美商城16-1-106商铺,30.344726,120.284417
常州莱蒙都会2店,常州市,江苏省常州市,,江苏省常州市钟楼区莱蒙都会商业街1-131/132/102/103商铺,31.77551734,119.95303588
大连凯丹广场店,大连市,辽宁省大连市,,大连市中山区长江东路80号凯丹广场第一层的03、04单元,38.92404329,121.67543442
合肥百大CBD店,合肥市,安徽省合肥市,,合肥市庐阳区长江中路367号CBD中央广场一楼星巴克咖啡,31.859890306283344,117.27137088775635
佛山美的创新中心店,佛山市,广东省佛山市,,佛山市顺德区北滘镇北滘社区居民委员会蓬莱路工业大道自编15栋,22.907548,113.212203
济南首创奥特莱斯店,济南市,山东省济南市,,济南市历城区世纪大道以北，唐冶东路以西，首创奥特莱斯1层A-15单元,36.69183013168249,117.232799219928
东莞松山湖万科广场店,东莞市,广东省东莞市,,广东省东莞市松山湖万科松湖中心二区2栋万科生活广场第一层L1-001单元和第二层L2-001单元,22.930399,113.893555
苏州永旺梦乐城吴中店,苏州市,江苏省苏州市,,江苏省吴中区越溪苏震桃路188号,31.194161694218,120.6123636958364
嘉定汽车城创新港店,上海市,上海市上海市,,上海市嘉定区安拓路56弄13号第一层102室,31.2785912057937,121.195511341357
汇宝广场店,上海市,上海市上海市,,上海市闵行区漕宝路3459号1C2-03,31.15552455,121.34887992
廊坊三河天洋广场咖啡店,廊坊市,河北省廊坊市,,河北省三河市燕郊开发区亿丰大街南侧、汉王路西侧三河天洋广场一层F1C-07单元,39.96572034,116.82253552
南京常发广场店,南京市,江苏省南京市,,江苏省南京市玄武区红山路88号一层1B-036-1单元,32.08506710381473,118.81008338921676
西安宏府大厦店,西安市,陕西省西安市,,西安市莲湖区北大街11号宏府大厦零售区地上二层2-21单元,34.267218484852556,108.94678115844728
贵阳鸿通城店,贵阳市,贵州省贵阳市,,贵阳市南明区解放路100号鸿通城购物中心C区地上一层L1C19-L1C20单元,26.55890301,106.70910669
三亚金润豪庭店,三亚市,海南省三亚市,,海南省三亚市河西区河西路100号金润豪庭第一层的A101单元,18.25122655,109.50768374
钦州北路店,上海市,上海市上海市,,上海市徐汇区钦州北路238-240号,31.18055671674024,121.41990065574647
郑州正道花园道店,郑州市,河南省郑州市,,河南省郑州市金水区花园路8号正道花园百货一层,34.76926960915964,113.68250334249754
苏州艾美广场店,苏州市,江苏省苏州市,,江苏省苏州市姑苏区广济南路18号一层,31.305781,120.601084
苏州星湖街店,苏州市,江苏省苏州市,,江苏省苏州市工业园区星湖街1205号101室、102-1室,31.2909792086045,120.724217176175
天津南开大悦城4店,天津市,天津市天津市,,天津市南开区南门外大街与服装街交口悦府家园6号楼1F-J05号铺位,39.13644906,117.17909257
北京财富中心三店,北京市,北京市北京市,,北京市朝阳区东三环中路5号楼北京财富金融中心B1层,39.91746157,116.46089613
沧州解放西路店,沧州市,河北省沧州市,,沧州市运河区 解放西路49号沧州市运河区 解放西路49号,38.30521733116035,116.83201678970364
苏州歌林小镇H区店,苏州市,江苏省苏州市,,江苏省苏州市吴中区越溪天鹅荡路1-1号,31.1913991875423,120.61216092106407
徐州苏宁广场5F店,徐州市,江苏省徐州市,,江苏省徐州市鼓楼区淮海东路29号徐州苏宁广场5层511、512、513、514单,34.266094,117.189285
大连高新锦辉店,大连市,辽宁省大连市,,大连市高新园区黄浦路519号锦辉购物广场一层01-02单元,38.865438,121.532573
北京北辰西路店,北京市,北京市北京市,,北京市朝阳区北辰西路8号院3号楼B座北辰世纪中心首层109单元,39.99927135,116.38789787
眉山市万达广场店,眉山市,四川省眉山市,,东坡区文忠街333号,30.07739086,103.83696266
金华义乌银泰伊美店,金华市,浙江省金华市,,浙江省义乌市工人西路15号银泰百货义乌伊美店一楼,29.30772761,120.07470067
久金购物中心店,上海市,上海市上海市,,上海市浦东新区张杨路3918号1楼03室，2楼03室,31.2556941914673,121.581117510796
北京新顺南大街咖啡店,北京市,北京市北京市,,北京市顺义区新顺南大街11号1幢一层2单元,40.12640061,116.65064753
赣州万象城店,赣州市,江西省赣州市,,赣州市章江新区新赣州大道8号L160铺,25.814302102769407,114.9267876148224
沈阳中海环宇城店,沈阳市,辽宁省沈阳市,,沈阳市皇姑区塔湾街11号甲一层122、123铺位,41.827896,123.37634
北京通厦公元99店,北京市,北京市北京市,,北京市海淀区悦秀路99号1层1单元,40.0471684900904,116.33715748786928
青岛李沧万达广场店,青岛市,山东省青岛市,,青岛市李沧区巨峰路148号李沧万达广场中9-1-2地块二层237号铺位,36.168138,120.4338
西安赛高金花店,西安市,陕西省西安市,,西安市北部经济技术开发区凤城五路与未央大道交叉处赛高国际金花百货一层,34.328808,108.94635
杭州国大1F2F店,杭州市,浙江省杭州市,,杭州市拱墅区延安路609号国大城市广场1F10、2F07号商铺,30.2692496672184,120.162966251446
长春赛特奥特莱斯门店,长春市,吉林省长春市,,吉林省长春净月开发区空地以东、丁二十二路以南、净月大街以西、空地以北零售商区第UG层的B-017单元和第UG层的B-018单元,43.76932351234835,125.44703900814058
常德欢乐城店,常德市,湖南省常德市,,武陵大道998号欢乐城购物中心一层,29.06584978528702,111.69504868990772
十堰大洋摩登购物中心店,十堰市,湖北省十堰市,,湖北省十堰市茅箭区五堰街办朝阳中路1号,32.65377931811774,110.78261863083755
四平路店,上海市,上海市上海市,,上海虹口区四平路188号113、116室,31.2624745531892,121.49112188803
宁波杉井奥特莱斯店,宁波市,浙江省宁波市,,浙江省宁波市海曙区春华路1399号杉井奥特莱斯广场l楼B12300号,29.85825965,121.4514465
新研大厦店,上海市,上海市上海市,,上海市徐汇区桂箐路65号一层107B号商铺和二层202-9号商铺,31.1726028238666,121.40469789505
北京常通路第二咖啡店,北京市,北京市北京市,,北京市朝阳区常通路2号院1号楼4F-27,39.92452852,116.60042015
苏州创意产业园店,苏州市,江苏省苏州市,,江苏省苏州市工业园区星湖街328号创意产业园五期综合1-108,31.265455,120.735753
无锡昌兴大厦店,无锡市,江苏省无锡市,,江苏省无锡市滨湖区金融1街1号昌兴国际金融大厦一楼,31.489159,120.306534
盐城五洲国际店,盐城市,江苏省盐城市,,江苏省盐城市迎宾南路28号,33.38171536,120.14091505
惠州天虹店,惠州市,广东省惠州市,,惠州麦地路天虹商场一层1019,23.07434937,114.41325459
奉贤金叶商厦店,上海市,上海市上海市,,上海市奉贤区南中路80号1层1F06,30.9140957996108,121.459167123103
珠海印象城店,珠海市,广东省珠海市,,珠海市香洲区明珠北路338号珠海乐世界购物中心一层F101号铺,22.27418304,113.50951957
香港名都店,上海市,上海市上海市,,上海市黄浦区河南南路489号L138和L140单元,31.22244959,121.49008935
福州世纪金源分店,福州市,福建省福州市,,福建省福州市仓山区城门镇潘墩路西侧闽江世纪城零售商区地上一层自编号MJ-SP-0-F1-047/048单元,26.02274,119.357973
东郊中心店,上海市,上海市上海市,,上海市浦东新区紫竹路383弄25号,31.22288078,121.60689901
光大会展店,上海市,上海市上海市,,上海市徐汇区漕宝路78号1001室,31.16777459,121.42830175
广州南沙万达店,广州市,广东省广州市,,广州市南沙区南沙街环市大道与双山大道交界处西万达广场北侧首层1001号,22.793899,113.533486
海口日月广场店,海口市,海南省海口市,,海南省海口市国兴大道8号日月广场地上第一层的4#-101号单元,20.0155840835616,110.350541472253
武汉红坊里店,武汉市,湖北省武汉市,,湖北省武汉市青山区和平大道八大家红坊里42街1号,30.62859987325252,114.38346472674314
城建大厦店,上海市,上海市上海市,,上海市浦东新区福山路500号,31.222366,121.531715
南京老门东店,南京市,江苏省南京市,,江苏省南京市秦淮区箍筒巷135号,32.011074,118.787216
北京望京东路咖啡店,北京市,北京市北京市,,北京市朝阳区望京东园四区6号楼北望金辉大厦一层105单元,40.00282714679236,116.48866176612502
武汉创意天地店,武汉市,湖北省武汉市,,武汉市洪山区洪山街野芷湖西路16号武汉创意天地1期C-1栋1-3层1室、2室,30.47093342558543,114.32390359335844
石家庄勒泰中心2店,石家庄市,河北省石家庄市,,河北省石家庄市桥东区中山东路39号勒泰中心6层,38.04590876,114.50557815
鞍山万象汇店,鞍山市,辽宁省鞍山市,,鞍山市铁东区建国南路700号万象汇商场L125,41.10873955,122.98412424
西安李家村万达店,西安市,陕西省西安市,,西安市碑林区雁塔路北段8号万达商业广场一层37号,34.243855,108.961525
沈阳华府天地店,沈阳市,辽宁省沈阳市,,沈阳市沈河区哈尔滨路118号,41.813697,123.432347
无锡万象城店,无锡市,江苏省无锡市,,江苏省无锡市滨湖区金石路88号万象城,31.514382,120.283304
洛阳南昌路王府井店,洛阳市,河南省洛阳市,,洛阳市涧西区南昌路与丽春路交叉口王府井购物中心一楼,34.64481825494403,112.4080538749695
杭州富阳首创奥特莱斯店,杭州市,浙江省杭州市,,浙江省杭州市富阳区江滨东大道889号一层F1-A09商铺,30.07692518186335,120.02903699878517
湘潭建设南路店,湘潭市,湖南省湘潭市,,湘潭市岳塘区建设南路102号步步高购物广场1楼,27.83394797,112.91835438
北京龙湖时代天街店,北京市,北京市北京市,,北京市大兴区永大路1号楼102室,39.68755354,116.32091686
重庆沙磁巷门店,重庆市,重庆市重庆市,,重庆市沙坪坝区沙滨路102-112号沙磁巷广场1F,29.58084352,106.45456449
金华义乌之心南门店,金华市,浙江省金华市,,浙江省金华市义乌市工人西路9号一层L1B02单元,29.3081450469167,120.0727862117492
苏州昆山金鹰尚美酒店店,苏州市,江苏省苏州市,,江苏省苏州市昆山市珠江中路199号,31.37529005066996,120.97294914712622
北京市龙域中街咖啡店,北京市,北京市北京市,,北京市昌平区龙域中街1号院1号楼,40.06600259804007,116.3157713769033
天津西康路咖啡店,天津市,天津市天津市,,天津市和平区岳阳道83、85、87号，西康路37号-102-1单元,39.1071032,117.19255465
宁波保利印江南店,宁波市,浙江省宁波市,,浙江省宁波市鄞州区舒波路355号A116商铺,29.849588,121.612984
北京龙德广场二店,北京市,北京市北京市,,北京市昌平区立汤路186号院1号楼02层(02)201内208单元,40.05856623,116.41611768
广州农林下路店,广州市,广东省广州市,,广州市越秀区农林下路37号广州美东百货店铺之首层1-Z01商铺,23.1289092,113.2971624
宁波象山太平洋广场店,宁波市,浙江省宁波市,,浙江省宁波市象山县巨鹰路101号,29.47749342,121.90064918
杭州西溪天堂店,杭州市,浙江省杭州市,,浙江省杭州市西湖区西溪天堂国际旅游综合体20号-10,30.26512638,120.09040425
厦门软件园分店,厦门市,福建省厦门市,,厦门市软件园二期观日路54 号的地上第1 层的107 单元,24.48281543,118.18559766
宁波亿彩购物中心店,宁波市,浙江省宁波市,,浙江省宁波市海曙区日新街105号1F-17商铺,29.86730647,121.55604035
黄浦永新广场店,上海市,上海市上海市,,上海市黄浦区南京西路128号永新广场1F,31.2341574,121.47219356
南京景枫广场1F店,南京市,江苏省南京市,,江苏省南京市江宁区双龙大道1698号F133铺位,31.930299,118.820603
太原华宇国际精品咖啡店,太原市,山西省太原市,,山西太原市新建路187号华宇国际精品零售区一层116单元，二层208、209单元,37.8741541,112.55058292
成都龙湖金楠天街店,成都市,四川省成都市,,成都市武侯区晋吉西一街66号龙湖金楠天街商场1F,30.649101,103.996418
武汉保利时代,武汉市,湖北省武汉市,,湖北省武汉市东湖新技术开发区关山大道332号保利时代广场C栋商业裙楼地上一层101及102单元,30.491342,114.41054
运城市国科欢乐港店,运城市,山西省运城市,,山西省运城市盐湖区解放北路68号国科欢乐港购物中心一层130单元,35.036322,110.988886
南通启东吾悦广场店,南通市,江苏省南通市,,江苏省南通市启东市汇龙镇建设南路88号一层单元1029,31.787884,121.661827
重庆金港国际店,重庆市,重庆市重庆市,,重庆市渝北区胜利路金港国际,29.71607212,106.63206201
新壹坊店,上海市,上海市上海市,,上海市闵行区银春路2152号1楼2-105室,31.02586737,121.38797772
长沙五一平和堂店,长沙市,湖南省长沙市,,湖南省长沙市黄兴中路88号负一层101单元,28.19482603930527,112.97687745074656
西安大华1935,西安市,陕西省西安市,,陕西省西安市新城区太华南路251号大华1935,34.28398825856831,108.9717622778335
苏州港龙城市广场店,苏州市,江苏省苏州市,,江苏省苏州市高新区长江路556号,31.3124322494715,120.546669959858
华山路,上海市,上海市上海市,,上海市静安区华山路301号1FA3,31.218873570523204,121.44648768638947
大连甘井子万达分店,大连市,辽宁省大连市,,大连市甘井子区虹韵路6号1A层1A01号,38.94992256121722,121.54018163681032
上海世界贸易大厦店,上海市,上海市上海市,,上海市黄浦区广东路500号1楼103单元,31.23249809,121.48211286
郑州高新万科店,郑州市,河南省郑州市,,河南省郑州市高新区红叶路89号高新万科购物中心一层,34.80657650706319,113.52489030374274
惠州大亚湾龙光城店,惠州市,广东省惠州市,,惠州市惠阳区（大亚湾区）西南大道88号龙光商业广场地上一层118B、119A号铺,22.720674727035124,114.41063404083253
衡阳华新步步高广场店,衡阳市,湖南省衡阳市,,湖南省衡阳市蒸湘区解放大道21号,26.89214708212497,112.56781697273256
无锡东亭卜蜂莲花广场店,无锡市,江苏省无锡市,,江苏省无锡市锡山区锡沪路东亭中路2号卜峰莲花广场F143/F145/F148商铺,31.583023,120.362864
西安曲江创意大厦店,西安市,陕西省西安市,,陕西省西安市雁塔区政通大道2号曲江创意大厦一层,34.1891697379446,108.96151428863962
上海金山卫清西路店,上海市,上海市上海市,,上海市金山区卫清西路420、422号,30.7295333235439,121.343958378056
赤峰市万悦城店,赤峰市,内蒙古自治区赤峰市,,赤峰市昭乌达路94号维多利万悦城1层05单元,42.27282,118.954285
无锡江阴敔山美嘉城店,无锡市,江苏省无锡市,,江阴市银桂路29号美嘉城一层110单元,31.888267,120.3319
邢台凰家广场店,邢台市,河北省邢台市,,邢台市桥西区中兴西大街139号逗号立方购物中心一层1F-21,37.06187816529946,114.47865843685578
南京悦拾光店,南京市,江苏省南京市,,江苏省栖霞区凤霞路10号“南京悦拾光”第一层F110铺位,32.11341296532946,118.85334849357606
南宁万科大厦店,南宁市,广西壮族自治区南宁市,,广西自治区南宁市良庆区金龙路2号万科大厦4#楼102单元,22.7651897877619,108.378551960122
上海北园路店,上海市,上海市上海市,,上海市浦东新区浦东新区北园路106号、110号,31.2045557061315,121.522217273778
舟山新城凯虹广场店,舟山市,浙江省舟山市,,舟山市定海区临城街道海宇道111号,29.98918625541498,122.21035838127138
南京汇鸿中天荟店,南京市,江苏省南京市,,江苏省南京市建邺区莫愁湖街道水西门大街云锦路上盖物业A地块地上1层自编号Y101单元,32.03523786700268,118.74849987023482
济南莱芜茂业天地店,济南市,山东省济南市,,山东省济南市莱芜区凤城街道文化南路1号莱芜茂业天地一层109号星巴克咖啡,36.21125560712592,117.67526865005495
天津滨海MSD店,天津市,天津市天津市,,天津市滨海新区第一大街79号C裙房泰达MSD一层C1-105号,39.02250952065496,117.70767152331248
杭州华夏之心店,杭州市,浙江省杭州市,,杭州市余杭区仓前街道余杭塘路2499号华夏之心18号楼18-5、18-6、18-7、18-8号商铺；,30.282535167,120.003118158
武汉绿地汉口中心店,武汉市,湖北省武汉市,,武汉市江岸区健康街66号,30.65713120717427,114.29361033446186
南通海安万达广场店,南通市,江苏省南通市,,江苏省南通市海安市黄海大道西8号1楼#1025,32.51580534725728,120.45358014067462
北京市财源国际中心店,北京市,北京市北京市,,北京市朝阳区建国门外大街8号楼A座一层104商铺,39.90742955681309,116.45275458089603
义乌总部经济园店,金华市,浙江省金华市,,义乌新科路与春谭路交叉口（总部A8幢一楼）,29.2782462837478,120.044528245925
上海南翔印象城2F店,上海市,上海市上海市,,上海市嘉定区陈翔公路2299号2F02-11a单元,31.30613948467848,121.3066062928556
上海静安光明店,上海市,上海市上海市,,上海市静安区西藏北路205号一层的205-2单元,31.243680391941,121.470933437413
盐城悦达城市广场店,盐城市,江苏省盐城市,,江苏省盐城市亭湖区希望大道中路60号2号楼购物中心地上一层L-129单元,33.39162205150726,120.19925594286183
淄博万达广场店,淄博市,山东省淄博市,,山东省淄博市张店区南京路与中润大道交汇处西北角淄博万达广场零售商区地上一层1023号铺位,36.83831297074279,118.0120897293091
南宁星光万科里店,南宁市,广西壮族自治区南宁市,,广西自治区南宁市江南区星光大道4号广西创意文化产业大厦首层L107单元,22.80652754009769,108.31507802009584
宁波江北老外滩2店,宁波市,浙江省宁波市,,浙江省宁波市江北区外马路465/471/473 号,29.88225143688058,121.56312183840784
宁波北仑富邦城,宁波市,浙江省宁波市,,浙江省宁波市北仑区新碶街道黄山路859号,29.8931981614516,121.845061682398
广州三元里中心店,广州市,广东省广州市,,广州市白云区机场路31号首层31#01单元,23.1571948,113.26302367
西安万科金域国际店,西安市,陕西省西安市,,陕西省西安市雁塔区高新一路40号万科金域国际一层,34.21916945200248,108.8936262141215
银川悦海BHG店,银川市,宁夏回族自治区银川市,,康平路与尹家渠街交汇处东北角,38.49450266755674,106.24511003494264
G15高速沙溪服务区南,苏州市,江苏省苏州市,,沿江高速公路沙溪服务区南区综合楼地上一层1#商铺,31.6050563499611,121.038608551025
宁波慈溪书城店,宁波市,浙江省宁波市,,浙江省宁波市慈溪市浒山街道新城大道北路89号慈溪书城一层1F-01单元,30.17003345736869,121.2638282775879
杭州临安青山湖宝龙店,杭州市,浙江省杭州市,,浙江省杭州市临安区青山湖街道科技大道2588号临安青山湖宝龙广场地上1层M-F1-005商铺,30.25881853592136,119.82941746719008
宁波慈溪吉利汽车二店,宁波市,浙江省宁波市,,浙江省宁波市慈溪市宁波杭州湾新区滨海四路919号,30.3337871244441,121.241632461024
临汾时光颂店,临汾市,山西省临汾市,,山西省临汾市开发区华远名邸以东、中大街以西、向阳西路以北的德和悦汇广场时光颂艺术购物中心一层103号、二层203号商铺,36.09745,111.506081
杭州贝达梦工场店,杭州市,浙江省杭州市,,浙江省杭州市余杭区五常街道联创街188号1幢101室-1,30.2891929921793,120.025159716679
上海南京东路地铁站店,上海市,上海市上海市,,上海市黄浦区外滩街道河南中路438号,31.2379627981898,121.484829426008
杭州浙大眼科医院店,杭州市,浙江省杭州市,,浙江省杭州市上城区外海西湖国贸大厦地上一层,30.2443193693759,120.180167555809
淮安金湖苏宁易购广场店,淮安市,江苏省淮安市,,江苏省淮安市金湖县人民路58号1F101铺,33.01979,119.0209
绍兴迎恩门店,绍兴市,浙江省绍兴市,,浙江省绍兴市越城区迎恩门风情水街3-2地块5#楼一层511、512A商铺,30.01557951833926,120.56565999984743
大连佳兆业广场店,大连市,辽宁省大连市,,辽宁省大连市天津街271号佳兆业广场,38.92139781954777,121.63741171360017
武汉喜年中心店,武汉市,湖北省武汉市,,湖北省武汉市硚口区汉正街346号附19号,30.56454926411197,114.2670274972261
上海吴泾满天星广场店,上海市,上海市上海市,,莲花南路3999弄9号116、117室,31.038994360867,121.444078087806
江门台山万达广场店,江门市,广东省江门市,,广东省江门市台山市台城镇陈宜禧路与凤凰大道交界处万达广场 1 层1050 号铺位,22.22911402237307,112.81257784368792
昆明海源高新天地店,昆明市,云南省昆明市,,云南省昆明市五华区昆明国家高新技术产业开发区科高路923号,25.0733404861334,102.6575481891632
北京平谷国泰店,北京市,北京市北京市,,北京市平谷区文化北街13号国泰商场一层,40.14049412807907,117.1113181114197
成都OCG国际中心店,成都市,四川省成都市,,成都市高新区天府四街196号OCG国际中心A座地上一层101单元,30.5428067198418,104.064420461655
重庆永辉广场店,重庆市,重庆市重庆市,,重庆市江北区盘溪七支路9号,29.58991209931806,106.48052215576172
上海井亭天地生活广场店,上海市,上海市上海市,,上海市闵行区虹泉路1078号,31.17004164750807,121.37429237365724
上海花都荟购物广场店,上海市,上海市上海市,,上海市嘉定区城中路2号1幢F1F007单元,31.3737255067374,121.25232481943387
上海中环金鑫生活广场店,上海市,上海市上海市,,上海市青浦区华新镇凤霞路605号,31.1861786557286,121.234420537949
上海红双喜大厦店,上海市,上海市上海市,,上海市黄浦区打浦桥街道制造局路266号,31.2071627482778,121.4842736721039
苏州昆山和风雅颂店,苏州市,江苏省苏州市,,江苏省苏州市昆山市玉山镇博士路99号人才专墅29幢地上一层A1-1F-01号铺位,31.40346773352044,120.90702056855665
温州瑞安中润广场店,温州市,浙江省温州市,,浙江省温州市瑞安市瑞祥大道1175号,27.78759200836058,120.66206346906257
扬州江都砂之船店,扬州市,江苏省扬州市,,江苏省扬州市江都区纬三路562号地上一层1-B08/09单元,32.38303524298205,119.59439992904665
邵阳步步高新天地店,邵阳市,湖南省邵阳市,,湖南省邵阳市双清区东风路街道建设南路73号,27.221086,111.484964
金华金城国际酒店店,金华市,浙江省金华市,,浙江省金华市婺城区环城南路西段1219号C幢地上一层的102室的部分区域及103室,29.07088657786299,119.65179481292581
深圳景田天然居分店,深圳市,广东省深圳市,,广东省深圳市福田区香梅路天然居商业中心一层,22.5533505992092,114.036165475845
孝感银泰城店,孝感市,湖北省孝感市,,湖北省孝感市孝南区天仙北路26号银泰百货1楼,30.930155701,113.943391085
天津保利广场店,天津市,天津市天津市,,天津市和平区南市大街与福安大街交口天汇中心1号楼-1、2-101天津保利广场一层的1025号铺位,39.13139599449381,117.18940258026124
南京江北龙湖天街,南京市,江苏省南京市,,江苏省南京市浦口区文景路99号地上一层1F-13,32.1580370373426,118.69684696197513
上海打浦桥日月光2店,上海市,上海市上海市,,上海市黄浦区徐家汇路618号第1层的1F-RJ14单元,31.2061983068482,121.467488408088
阳江阳春恒生壹号广场店,阳江市,广东省阳江市,,广东省阳江市阳春市春城街道阳春大道162号,22.178841,111.812196
成都龙湖上城天街店,成都市,四川省成都市,,成华西街299号A馆-1F-10a,30.68529311042241,104.07261729240417
泉州石狮世茂摩天城分店,泉州市,福建省泉州市,,福建省泉州市石狮市石龙路288号世茂摩天城南3号楼1的地上第一层G106-1号店铺,24.71866432647292,118.622624874115
杭州萧山南环路世纪联华,杭州市,浙江省杭州市,,浙江省杭州市萧山区南环路1288-3号,30.144098,120.27829
汕头东厦路分店,汕头市,广东省汕头市,,广东省汕头市金平区东厦路100号东厦壹佰购物商场地上一层F125、F126号店铺,23.379176152919676,116.70388519763948
宁波韩岭老街店,宁波市,浙江省宁波市,,浙江省宁波市鄞州区环湖东路1566号,29.73781568944919,121.6659193049418
深圳车公庙百安居分店,深圳市,广东省深圳市,,广东省深圳市福田区泰然八路33号云松大厦地上一层百安居03商铺,22.52935550518074,114.02272760868074
扬州弘阳广场店,扬州市,江苏省扬州市,,江苏省扬州市广陵区文昌东路12号地上一层1031及1031单元,32.39642772382154,119.50452178716662
天津峰汇广场店,天津市,天津市天津市,,"天津市河西区黄埔南路与围堤道交口西南侧峰汇广场1,2,3号楼裙房一层3号",39.0973312668482,117.20726609230043
北京汉威三期店,北京市,北京市北京市,,北京市丰台区南四环西路186号三区6号楼地上一层03单元,39.8231718572982,116.295036077499
杭州滨江上峰产业园店,杭州市,浙江省杭州市,,浙江省杭州市滨江区江虹路611号上峰产业园3号楼101室,30.18899191,120.2025903
上海中心B2店,上海市,上海市上海市,,上海市浦东新区银城中路501号B2-9,31.233866,121.505478
杭州欧美金融城T6号楼,杭州市,浙江省杭州市,,浙江省杭州市余杭区仓前街道向往街1127-19-228号,30.28037920635128,120.00200808026422
广元万达广场店,广元市,四川省广元市,,四川省广元市利州区万源新区万达广场,32.4243206482427,105.875936150551
盐城射阳吾悦广场店,盐城市,江苏省盐城市,,江苏省盐城市射阳县经济开发区新城大道88号射阳吾悦广场S1#楼1022单元,33.771759616901,120.304057717258
广州琶洲唯品会店,广州市,广东省广州市,,广州市海珠区鼎新路128号唯品会总部大厦,23.10473863056289,113.3485239743095
天津理工大学店,天津市,天津市天津市,,天津市西青区宾水西道391号天津理工大学荟贤宾馆的地上一层的101单元,39.06191577888652,117.14567184448244
东莞麻涌星河城市广场店,东莞市,广东省东莞市,,"广东省东莞市麻涌镇建设路69号星河城市广场地上第一层135,136,137号铺位 ",23.0516908400288,113.57463777098
湖州市中心医院店,湖州市,浙江省湖州市,,浙江省湖州市吴兴区三环北路1558号,30.8951497681928,120.124287486142
湖州吾悦广场店,湖州市,浙江省湖州市,,湖州市吴兴区仁皇山街道太湖路1699号湖州吾悦广场1001号商铺（金田路与太湖路交叉口）,30.9103328511951,120.10135674529
张家口密苑云顶乐园店,张家口市,河北省张家口市,,河北省张家口市崇礼区四台嘴乡梧桐大道云顶大酒店3F雪场入口处（F&B 6）,40.948472,115.435713
北京西单大悦城3店,北京市,北京市北京市,,北京市西城区西单北大街131号楼地上一层101号1F-30A号,39.910463852557434,116.37273607826502
武汉光谷新发展店,武汉市,湖北省武汉市,,湖北省武汉市洪山区东湖新技术开发区关山大道473号地上一层A1-22单元（自编号）,30.48039680622914,114.41082286808523
上饶万达广场店,上饶市,江西省上饶市,,江西省上饶市信州区滨江西路66号上饶万达广场室内步行街地上一层1001、W01B号铺位；,28.44324724415689,117.95319622367973
佛山月星环球港店,佛山市,广东省佛山市,,广东省佛山市禅城区季华六路17号,23.01274645259961,113.1412571668625
荆州吾悦广场店,荆州市,湖北省荆州市,,湖北省荆州市沙市区江汉北路109号吾悦广场一层1025号商铺,30.32589725621445,112.26616014217144
盐城东台中南城店,盐城市,江苏省盐城市,,江苏省盐城市东台市迎宾大道80号中南购物中心一层1014-1单元,32.88443453861008,120.3141975415929
滨州万达店,滨州市,山东省滨州市,,山东省滨州市滨城区彭李街道黄河十二路798号滨州万达广场1001号星巴克咖啡,37.40534647182907,117.9953956604004
呼和浩特市维多利广场店,呼和浩特市,内蒙古自治区呼和浩特市,,内蒙古省呼和浩特市新城区东街街道新华东街8号维多利国际广场一层,40.82792026521012,111.69831991195677
廊坊燕郊弘阳广场店,廊坊市,河北省廊坊市,,河北省廊坊市三河市燕郊镇燕顺路1756号物业中零售商区内1#楼的第1层的1029单元,40.00085971986119,116.78306579939093
深圳布吉天虹店,深圳市,广东省深圳市,,广东省深圳市龙岗区布吉街道中兴路与吉政路交汇处万事达农贸市场（天虹商场）一楼,22.60872502803883,114.1245474814059
苏州相城吾悦广场店,苏州市,江苏省苏州市,,江苏省苏州市相城区相城大道3188号1楼1001商铺,31.41375607243563,120.63005876567333
泰州兴化万达广场店,泰州市,江苏省泰州市,,江苏省泰州市兴化市临城街道文昌路115号一楼1051铺位,32.89890625363032,119.84640468202996
湛江荣基广场店,湛江市,广东省湛江市,,广东省湛江市霞山区观海路183号地上一层1F-02号铺,21.2160454073033,110.419174432755
十堰人民商场店,十堰市,湖北省十堰市,,湖北省十堰市茅箭区五堰街办人民北路1号武商集团十堰人民商场第一层1A-11单元,32.65190082348641,110.78655026140042
西昌万达广场店,西昌市,四川省西昌市,,四川省西昌市高枧乡航天大道4号,27.87362896648036,102.2842419148583
沈阳长白万象汇店,沈阳市,辽宁省沈阳市,,沈阳市和平区长白北路199号华润万象汇L1层L142号商铺,41.74611641194103,123.40083932911512
南京新尧金地广场店,南京市,江苏省南京市,,江苏省南京市栖霞区尧化街道金尧路22号新尧金地广场第1层的L1034单元,32.12443973452006,118.88999551534654
新乡万达店,新乡市,河南省新乡市,,河南省新乡市牧野区宏力大道东19号万达广场一层1011B星巴克,35.3174057236992,113.906780004436
唐山远洋城店,唐山市,河北省唐山市,,河北省唐山市路北区建设北路128号第一层的F1-38& W146单元,39.66732255783797,118.17582607280204
金华市人民医院店,金华市,浙江省金华市,,浙江省金华市金东区丹溪东路267号金华市人民医院南一层店铺第一间,29.08246379696443,119.68016624450686
南宁长虹路万科里店,南宁市,广西壮族自治区南宁市,,广西自治区南宁市青秀区长虹路7号,22.84218241827777,108.37948322296144
上海恒利国际大厦店,上海市,上海市上海市,,上海市静安区成都北路189号1层101A、101B单元,31.22741007164259,121.46659576879757
上海源深金融大厦店,上海市,上海市上海市,,上海市浦东新区商城路1418号地上第1层的102-2单元,31.236137,121.532435
贵阳数博万达广场店,贵阳市,贵州省贵阳市,,贵州省贵阳市乌当区贵州省贵阳市云岩区北京西路66号贵阳数博万达广场一层1009铺位,26.59357358314229,106.64994478138398
广州神舟路站店,广州市,广东省广州市,,广东省广州市天河区广州黄埔科学大道46号天石汇首层01-1006,23.1644546633041,113.430214762884
汉中吾悦广场店,汉中市,陕西省汉中市,,陕西省汉中市汉台区汉中新城吾悦广场1层1056单元,33.07182772248277,106.99461286676527
上海番禺878店,上海市,上海市上海市,,上海市徐汇区番禺路878号1层3临101室、A101室,31.1962798671828,121.428112507128
石家庄天河方圆荟店,石家庄市,河北省石家庄市,,河北省石家庄市新华区西三庄街道北二环西路389号，天河方圆荟一层,38.08730594116326,114.43963050667664
宜春天虹购物中心店,宜春市,江西省宜春市,,江西省宜春市袁州区宜阳大道239号宜春天虹购物中心地上一层1766单元,27.811311537166,114.410946152784
台州温岭领悦广场店,台州市,浙江省台州市,,浙江省台州市温岭市泽国镇泽牧路208-15号,28.49918830269261,121.36107444763186
上海大华第一坊店,上海市,上海市上海市,,上海市宝山区真华路950号101室,31.27288397808557,121.4112049341202
北京东直门莱福士二店,北京市,北京市北京市,,北京市东城区北新桥街道东直门南大街1号,39.94070003431229,116.4321756354184
东营王府井购物中心店,东营市,山东省东营市,,山东省东营市东营区天目山路1199号王府井广场一层L1001星巴克咖啡,37.44290439183917,118.59524488449098
莆田学园路分店,莆田市,福建省莆田市,,福建省莆田市城厢区龙桥街道学园中街1620号1012店铺,25.44543313680597,119.0147026775958
宜昌兴发广场店,宜昌市,湖北省宜昌市,,湖北省宜昌市伍家岗区宝塔河街道中南路35号 兴发广场一层133号商铺,30.6778175814543,111.3310894111055
上海黄浦绿地缤纷城店,上海市,上海市上海市,,上海市黄浦区打浦路658弄1号101、102室,31.1932017093833,121.474270105427
上海睿珑广场店,上海市,上海市上海市,,上海市长宁区虹桥街道延安西路2088号,31.202811,121.407956
长春机场安检外店,长春市,吉林省长春市,,吉林省长春市二道区长春市九台区龙嘉镇机场T2航站楼安检外,43.99726633610027,125.70196801985735
上海新田360华侨城店,上海市,上海市上海市,,上海市闵行区陈行公路2688号L114-115 单元,31.094954670499,121.503450393939
武汉恒隆广场店,武汉市,湖北省武汉市,,湖北省武汉市硚口区京汉大道668号,30.57802769397089,114.27280283052824
上海世博源世博大道店,上海市,上海市上海市,,上海市浦东新区世博大道1368号1区1L107室,31.1868156347222,121.49194049874498
上海松江宝地佘山荟店,上海市,上海市上海市,,上海市松江区佘月路27号,31.103920989064,121.230491646566
上海凌兆慕天五街坊店,上海市,上海市上海市,,上海市浦东新区凌兆路116-120号-120号,31.1411111532042,121.492459774017
宁波欢乐海岸水秀店,宁波市,浙江省宁波市,,浙江省宁波市鄞州区欢乐海岸路7号,29.82171717086189,121.52423024184829
成都磨子桥店,成都市,四川省成都市,,四川省成都市武侯区一环路南二段1号附14号1层,30.63386613838731,104.07561302192335
成都王府井府青店,成都市,四川省成都市,,四川省成都市成华区二环路北四段3号王府井购物中心J4-1F-P001,30.68871428029728,104.099600315094
珠海横琴国际商务中心店,珠海市,广东省珠海市,,珠海市横琴新区环岛东路3000号,22.144700435151222,113.54457020759584
深圳大学校友广场店,深圳市,广东省深圳市,,广东省深圳市南山区粤海街道深大社区南海大道3688号深圳大学校友广场202,22.53421629777628,113.93847405910493
哈尔滨机场安检内店,哈尔滨市,黑龙江省哈尔滨市,,黑龙江省哈尔滨市道里区太平国际机场航站楼T2隔离区内二层三角区T2航站楼隔离区内三角区,45.61956659932797,126.23844623565677
杭州欧美金融城T8号楼,杭州市,浙江省杭州市,,浙江省杭州市余杭区仓前街道欧美金融城8幢地上一层D105、D107号商铺；,30.2807118221906,119.999903798234
台州椒江椒兰汇店,台州市,浙江省台州市,,浙江省台州市椒江区葭沚街道东平路781、783、785号,28.6693529236916,121.403217315674
天津滨海周大福中心店,天津市,天津市天津市,,天津市滨海新区第一大街61号周大福金融中心L1层L114号,39.022141394768546,117.70452441563977
南京浦口白马广场店,南京市,江苏省南京市,,江苏南京浦口区狮山路5号地上二层216单元,32.0763269921896,118.63059103488924
上海中融碧玉蓝天大厦店,上海市,上海市上海市,,上海市浦东新区银城中路8号105室,31.241674,121.507404
安顺国贸购物中心店,安顺市,贵州省安顺市,,贵州省安顺市西秀区塔山西路13号王府井国贸购物中心1F-B-03,26.23927737902601,105.93282580375671
北京亿方大厦店,北京市,北京市北京市,,北京市海淀区海淀街道苏州街24号,39.9760567734386,116.306769847433
成都市港汇天地店,成都市,四川省成都市,,天府五街999号港汇天地B栋L1-001,30.5375951027435,104.057487488317
温州景山印象里店,温州市,浙江省温州市,,浙江省温州市瓯海区六虹桥路998号景山印象里地上1层L1-18/L1-19a单元,27.981858,120.63524
广州新燕大厦店,广州市,广东省广州市,,广东省广州市天河区燕岭路95号新燕大厦首层,23.161257,113.32844
西安万象天地店,西安市,陕西省西安市,,陕西省西安市雁塔区雁展路1111号,34.19846415644334,108.95155763573715
上海北虹路店,上海市,上海市上海市,,上海市长宁区北虹路1121号地上1层102室—B,31.21166365,121.37616992
南京拉德芳斯风情街店,南京市,江苏省南京市,,江苏省南京市建邺区富春江东街82-6至82-10号地上第一层的T8单元,31.99806786874046,118.7293016904005
北京通州爱琴海臻选店,北京市,北京市北京市,,北京市通州区通州新华东街289号,39.90864991614044,116.65834665298463
北京正大中心2店,北京市,北京市北京市,,北京市朝阳区金和东路20号院正大中心2层L203,39.91315829921466,116.46816641081388
深圳新一代店,深圳市,广东省深圳市,,广东省深圳市福田区中康路136号新一代产业园4号楼沿街商铺（4-L1-02、4-L1-03号店）,22.57283889694427,114.06123340129854
杭州浙大森林店,杭州市,浙江省杭州市,,浙江省杭州市西湖区西园八路3-1号101号商铺,30.3078389197841,120.063659906518
上海嘉华中心大厦店,上海市,上海市上海市,,上海市徐汇区淮海中路1010号1楼101A单元,31.21592118598443,121.45604610443117
苏州太仓华发广场店,苏州市,江苏省苏州市,,江苏省苏州市太仓市城厢镇南郊太平新路8号1层122单元,31.43294747009011,121.12881660461429
上海融信上坤中心店,上海市,上海市上海市,,上海市闵行区上坤路77弄2号单元,31.1638347662515,121.35501384706
深圳彩讯科技大厦店,深圳市,广东省深圳市,,广东省深圳市南山区高新南区科苑南路3176号彩讯科技大厦一层02号铺,22.5316546169867,113.946434855461
杭州萧山领航城店,杭州市,浙江省杭州市,,浙江省杭州市萧山区博奥路1828号、博奥路1830号、建设四路376号,30.2104534856694,120.243831980479
上海首位店,上海市,上海市上海市,,上海市青浦区蟠中东路318号E152,31.1896388505466,121.293911936518
宁波万象城B1店,宁波市,浙江省宁波市,,浙江省宁波市江北区清河路256号宁波万象城地下一层B101-102单元,29.89804743580852,121.5515434741974
长沙南站门店,长沙市,湖南省长沙市,,湖南省长沙市雨花区东山街道潭白北路7号,28.14659900592509,113.06686234500376
嘉兴华润南湖天地南区店,嘉兴市,浙江省嘉兴市,,浙江省嘉兴市南湖区南湖路171号的嘉兴南湖天地购物中心地上一层D511a号,30.75247640885882,120.76644301392663
沈阳金地琥珀天地店,沈阳市,辽宁省沈阳市,,辽宁省沈阳市浑南区五三街道浑南中路18-58号,41.74714208666632,123.51250648498537
重庆大渡口万象汇店,重庆市,重庆市重庆市,,重庆市大渡口区重庆大渡口文体路99号,29.482432,106.484294
杭州富阳万达广场店,杭州市,浙江省杭州市,,浙江省杭州市富阳区银湖街道金桥北路990号地上一层1032A号商铺,30.088268,119.932692
绵阳长虹国际广场店,绵阳市,四川省绵阳市,,四川省绵阳市涪城区工区街道剑南路西段20号长虹国际城1期,31.46784971251078,104.74310159639575
眉山仁寿万达广场门店,眉山市,四川省眉山市,,四川省眉山市仁寿县普宁街道迎宾大道仁寿县交警大队仁寿万达广场一楼,29.9902192616854,104.164010882378
宁波慈溪高新爱琴海店,宁波市,浙江省宁波市,,浙江省宁波市慈溪市历崔线与中横线交叉处,30.2247127138829,121.216825246811
北京北投科苑社区店,北京市,北京市北京市,,北京市朝阳区亚运村街道安定路5号,39.98111563962365,116.40480279922487
珠海城市阳台店,珠海市,广东省珠海市,,广东省珠海市香洲区情侣中路(香炉湾沙滩西侧约50米),22.263347,113.582153
无锡河埒金融港店,无锡市,江苏省无锡市,,江苏省无锡市滨湖区河埒街道梁清路88号1层1单元,31.56027467699,120.273685455322
天津大港万达广场店,天津市,天津市天津市,,天津市滨海新区大港新天地商业广场东区1-1-世纪大道（东）333#大港万达广场一层1005号,38.8454902344909,117.489820718765
成都市创意山店,成都市,四川省成都市,,四川省成都市锦江区成龙路街道月季街334四川成都锦江区锦江大道368号创意山商业中心一期3号楼,30.60266479438209,104.14629650011194
嘉兴戴梦得购物中心店,嘉兴市,浙江省嘉兴市,,浙江省嘉兴市南湖区戴梦得大厦S101室1-001号,30.76099549066993,120.74867999566779
镇江扬中吾悦广场店,镇江市,江苏省镇江市,,江苏省镇江市扬中市迎宾大道1999号地上一层的1016单元,32.22142417981155,119.79515790939332
深圳国银租赁分店,深圳市,广东省深圳市,,广东省深圳市福田区莲花街道福中三路2003号,22.54201005557977,114.0644520521164
长沙保利河马汇店,长沙市,湖南省长沙市,,湖南省长沙市岳麓区银盆岭路228号保利西海岸小区F1-F5区,28.2228512992727,112.958650231394
黄山屯溪黎阳in巷店,黄山市,安徽省黄山市,,昱新路2号黎阳映像20幢3号,29.70643112119315,118.29864621162416
郑州金水印象汇店,郑州市,河南省郑州市,,河南省郑州市金水区中州大道1188号置地广场购物中心一层01-01号星巴克,34.7491843949593,113.72516441351765
茂名华侨城店,茂名市,广东省茂名市,,广东省茂名市茂南区光华南路128号茂名华侨城购物广场地上一层L146号商铺,21.65793474646672,110.92390930632973
上海零号湾店,上海市,上海市上海市,,上海市闵行区剑川路940号1幢地上一层1C01单元,31.02777918461802,121.42190456186655
苏州吴江平望南大街店,苏州市,江苏省苏州市,,江苏省苏州市吴江区平望镇南大街16号,30.97547960152161,120.6439644098282
台州温岭宝龙广场店,台州市,浙江省台州市,,浙江省台州市温岭市浙江台州温岭市温岭宝龙广场M-L1-001-2单元,28.40378279538201,121.34262084960938
万宁华亚欢乐城店,海口市,海南省海口市,,海南省万宁市万城镇环市一西路北侧城西路东侧华亚欢乐城首层1F044-A单元,18.80476765422768,110.3811128931193
湖州浙北运动体验中心店,湖州市,浙江省湖州市,,浙江省湖州市吴兴区港南路388号1层F114单元,30.8516069204437,120.087829828262
南京河西龙湖天街店,南京市,江苏省南京市,,江苏省南京市建邺区云龙山路89号1幢的1F-43铺位,31.98914609977047,118.73797059059144
惠州惠阳天虹分店,惠州市,广东省惠州市,,广东省惠州市惠阳区淡水金惠大道锦江国际惠阳天虹商场一楼1015A1016A号商铺,22.78650367344565,114.45143043994904
永康古山山水一品店,金华市,浙江省金华市,,浙江省金华市永康市古山镇雅苑东片地块1号楼地上一层01号商铺,28.969732,120.148666
杭州望京中心店,杭州市,浙江省杭州市,,浙江省杭州市萧山区盈丰街道望京商务中心1幢6号地上一层,30.237887757144,120.254008769989
宁波国华金融大厦店,宁波市,浙江省宁波市,,浙江省宁波市鄞州区福明街道中山东路1800号1-5-2单元,29.8561284300466,121.612815856934
沈阳杉杉奥特莱斯广场店,沈阳市,辽宁省沈阳市,,辽宁省沈阳市铁西区大青中朝友谊街道开发二十五号路7号杉杉奥特莱斯商场B158-1,41.732979,123.288193
上海东靖路店,上海市,上海市上海市,,上海市浦东新区高行镇张杨北路1933号102室,31.2909104468832,121.588407754898
南京宜悦城店,南京市,江苏省南京市,,江苏省南京市雨花台区安德门大街36号F1-16,31.9787309639939,118.76251816749574
上海绿地北虹桥科技园店,上海市,上海市上海市,,上海市嘉定区金沙江西路880号1层、沙河路317号1层A单元,31.2413926623363,121.330565929675
乐山龙湖星悦荟店,乐山市,四川省乐山市,,四川省乐山市市中区柏杨街道柏杨中路409号,29.58883981155858,103.74696850787588
上海星巴克向绿工坊,上海市,上海市上海市,,"上海市浦东新区东育路500弄
前滩太古里中央公园L1层 C-L1-01",31.152988,121.48188
广州长兴路店,广州市,广东省广州市,,广东省广州市天河区长兴路13号首层085,23.16955619664139,113.3478172629839
常州科教城创研港店,常州市,江苏省常州市,,江苏省常州市武进区湖塘镇常武中路801号-常州科教城创研港2号楼一楼,31.68125051565946,119.96847152709962
长沙星沙天虹购物中心店,长沙市,湖南省长沙市,,湖南省长沙市长沙县星沙街道开元东路192号,28.24524863183659,113.0972571369057
常州青果巷店,常州市,江苏省常州市,,常州市天宁区和平北路106号,31.7720729184789,119.962474703971
成都乐家保利广场店,成都市,四川省成都市,,四川省成都市武侯区益州大道中段699号一层1025号,30.5554243266954,104.057264328003
上海现厂店,上海市,上海市上海市,,上海市嘉定区博乐路70号36幢1层107-1、107-2单元,31.37877445618619,121.25717639923099
天津生态城季景天地店,天津市,天津市天津市,,天津市滨海新区中新生态城和旭路以西、和畅路以北季景天地一层L1-03号,39.116480694516845,117.74801369874696
天津津南富力又一城店,天津市,天津市天津市,,天津市津南区咸水沽镇尚德路以北、坤元路以南银岛商业街 25 号楼 25 5 号一层,39.0002871168782,117.399373500011
通化中东新天地店,通化市,吉林省通化市,,吉林省通化市东昌区环通乡光明路102号中通化市中东新天地购物公园一层通化市中东新天地购物公园一层,41.7073625028601,125.93464851379396
上海静安华发中心店,上海市,上海市上海市,,上海市静安区平陆路889号101室,31.2926523950282,121.445864439011
上海永华大厦店,上海市,上海市上海市,,上海市浦东新区浦东大道138号,31.2387030867598,121.514067649514
永州万达广场店,永州市,湖南省永州市,,湖南省永州市冷水滩区曲河街道,26.415867,111.627106
郑州新郑机场到达层店,郑州市,河南省郑州市,,河南省郑州市新郑市新郑国际机场到达层国内出口处,34.52470036482362,113.8547108171406
佛山三水钧明汇店,佛山市,广东省佛山市,,广东省佛山市三水区西南街道健力宝南路44号钧明汇首层自编号105-107、118,23.1644793229832,112.896104335523
天津滨江商厦店,天津市,天津市天津市,,天津市和平区滨江道193号天津滨江商厦的地上第一层的1号单元,39.1242800123639,117.19955742359161
无锡百盛1F店,无锡市,江苏省无锡市,,江苏省无锡市梁溪区江苏无锡梁溪区人民中路127号M-1-2,31.57571768050625,120.30114531531584
常州遥观湖港名城店,常州市,江苏省常州市,,江苏省常州市武进区遥观镇湖港名城10幢16号一楼星巴克门店,31.71905950914943,120.04870712789854
杭州大江东龙湖天街店,杭州市,浙江省杭州市,,浙江省杭州市萧山区义蓬街道全民路55-57号,30.3102082357729,120.496287345886
北京通州富力星光里店,北京市,北京市北京市,,北京市通州区北京通州区江米店街2号院4号楼1层107号,39.9036625060553,116.68645620346071
成都市KBC欧韩馆店,成都市,四川省成都市,,四川省成都市锦江区四川成都锦江区东大街111号KBC欧韩馆第一层103号东大街111号KBC欧韩馆第一层103号铺位,30.6556280486908,104.072290062904
上海罗秀路店,上海市,上海市上海市,,上海市徐汇区罗秀路897号,31.13116569137295,121.43256068229675
北京魏公村中科出版社店,北京市,北京市北京市,,北京市海淀区中关村南大街16号1层02号,39.95645355769983,116.32384300231936
苏州相城蔚蓝生活广场店,苏州市,江苏省苏州市,,江苏省苏州市相城区高铁新城南天成路17号蔚蓝生活广场1层F101-1单元,31.41344659030514,120.6531858444214
北京华贸非遗概念店,北京市,北京市北京市,,北京市朝阳区建国路79号裙房西段北侧商亭,39.90949757515391,116.4802050583967
杭州钱江世纪城印象城店,杭州市,浙江省杭州市,,浙江省杭州市萧山区钱江世纪城金鸡路和飞虹路岔口,30.2241221915763,120.25351524353
淮北万达广场店,淮北市,安徽省淮北市,,安徽省淮北市相山区南湖路85号万达广场1028铺,33.9643982099399,116.82060956954957
上海现所创邑MIX店,上海市,上海市上海市,,上海市长宁区天山路919号，1F123单元，2F223单元,31.2102230175079,121.407213807106
武汉汉商银座店,武汉市,湖北省武汉市,,湖北省武汉市汉阳区湖北武汉汉阳区汉阳大道139号第2栋1层,30.54902568399808,114.26692128181458
北京润枫嘉尚NOW店,北京市,北京市北京市,,北京市朝阳区六里屯街道朝阳北路129号院润枫·嘉尚,39.92354414421574,116.5029501914978
惠州惠阳开城天虹分店,惠州市,广东省惠州市,,广东省惠州市惠阳区淡水开城大道旺东怡和家园1层商业裙楼（开城天虹商场）B137CD、B137D单元,22.770305384386,114.475752711296
邯郸美的悦然广场店,邯郸市,河北省邯郸市,,河北省邯郸市邯山区马庄乡中华南大街,36.56537481313903,114.489963054657
郑州永和龙子湖时光里店,郑州市,河南省郑州市,,郑州市郑东新区平安大道197号零售商区一层1F-09单元,34.7914636958314,113.805459022587
宁波余姚华联商厦店,宁波市,浙江省宁波市,,浙江省宁波市余姚市浙江省宁波市余姚市浙江宁波余姚市新建路55号,30.04973291111734,121.1564064027698
佛山大学城店,佛山市,广东省佛山市,,广东省佛山市南海区佛山市南海区狮山镇狮山科技软件园（生活一区一号餐厅）,23.14443049181553,113.03096365922102
苏州常熟凤凰城店,苏州市,江苏省苏州市,,常熟市新世纪大道77号1层120、121、122单元,31.667488674,120.770698786
宣城万达广场店,宣城市,安徽省宣城市,,安徽省宣城市宣州区水阳江大道以北、景德路以东宣城万达广场地上一层1037、1038铺位,30.935856873744232,118.73868942260744
广州环贸中心店,广州市,广东省广州市,,广东省广州市天河区广东广州天河区天河北路237号,23.1416428811474,113.326303959093
上海松江印象城店,上海市,上海市上海市,,上海市松江区广富林路1788弄1号地上一层L130-2单元,31.061907,121.22216
天津宁河吾悦广场店,天津市,天津市天津市,,天津市宁河区桥北新区光明路东侧宁河吾悦广场地上一层1001单元,39.33764987696606,117.81794071197513
上海宝山杨行益街坊店,上海市,上海市上海市,,上海市宝山区顾北东路60幢8号01单元,31.3607098373639,121.416800022125
北京中海广场店,北京市,北京市北京市,,北京市朝阳区光华东里8号院1号楼北京中海广场一层F102B,39.91121324,116.45637682
济宁爱琴海店,济宁市,山东省济宁市,,山东省济宁高新区柳行街道办事处崇文大道409号爱琴海购物公园1048A-1+1049B号商铺,35.42318930837257,116.69495344161987
广州流花展贸中心店,广州市,广东省广州市,,广东省广州市越秀区流花路117号内自编1号1号馆122铺,23.1412774898704,113.258185386658
厦门集美软件园三期分店,厦门市,福建省厦门市,,福建省厦门市集美区厦门集美诚毅北大街50号206 #05,24.615189,118.045456
昆明安宁吾悦广场门店,昆明市,云南省昆明市,,云南省昆明市安宁市连然街道建兴巷1号昆明安宁吾悦广场,24.925045557386383,102.483312384832
珠海高新宝龙广场店,珠海市,广东省珠海市,,广东省珠海市香洲区金峰北路88号高新宝龙城的地上第一层自编单元L1-001号商铺,22.3815078843781,113.550653457642
佛山顺德万达广场店,佛山市,广东省佛山市,,广东省佛山市顺德区大良街道南江社区南霞新路9号万达广场首层自编1029单元(住所申报),22.7935116194978,113.283301591873
崇左万象汇店,崇左市,广西壮族自治区崇左市,,广西省崇左市江州区石景林街道万象汇,22.3980003933484,107.404036957305
大连北站店,大连市,辽宁省大连市,,辽宁省大连市甘井子区南关岭街道大连北站(南进站口),39.0158493674787,121.607751846314
北京林奥店,北京市,北京市北京市,,北京市朝阳区北京朝阳区清林东路4号院8号楼1层110号,40.03482721287814,116.4096522331238
成都新都旭辉广场店,成都市,四川省成都市,,四川省成都市新都区新都街道育英路成都旭辉广场(建设中),30.79956163618917,104.1797661781311
厦门集美世茂广场分店,厦门市,福建省厦门市,,福建省厦门市集美区福建省厦门市集美区集美世茂广场地上一层 L1-036 铺位,24.6024161575312,118.07616770267488
苏州张家港中骏世界城店,苏州市,江苏省苏州市,,江苏省苏州市张家港市中港南路99号15#楼的地上一层的M101A单元,31.9358749680826,120.42609930038454
无锡江阴红豆万花城店,无锡市,江苏省无锡市,,江苏省无锡市江阴市万花商业广场1号-101的115号铺位,31.89841877929547,120.13554096221927
北京石景山金融街中心店,北京市,北京市北京市,,北京市石景山区石景山路54号院3号楼1至2层6-23-1号,39.9058764342228,116.18464171886446
北京市亮马河大厦店,北京市,北京市北京市,,北京市朝阳区东三环北路8号北京亮马河大厦,39.94551,116.46448
咸阳秦都万达广场店,咸阳市,陕西省咸阳市,,陕西省咸阳市秦都区人民西路北侧秦都万达广场,34.3355605036233,108.699964284897
嘉兴桐乡濮院蓝高中心店,嘉兴市,浙江省嘉兴市,,浙江省嘉兴市桐乡市濮院镇凯旋路1278号1002号铺位,30.67336748108934,120.6161856655672
深圳坪山天虹店,深圳市,广东省深圳市,,广东省深圳市坪山区坪山街道六联社区锦龙大道16号东晟时代花园裙楼地上一层1008D单元,22.679239813106,114.329337555973
泰州靖江印象城店,泰州市,江苏省泰州市,,江苏省泰州市靖江市晨阳路81号零售商区01-31A单元,31.9759006092869,120.2783203125
广州增城金海岸广场店,广州市,广东省广州市,,广东省广州市增城区新塘镇港口大道北332号金海岸城市广场首层A14、A16铺,23.1276494730936,113.603205442232
温州温德姆酒店,温州市,浙江省温州市,,浙江省温州市龙湾区浙江温州龙湾区永中街道永强大道4567号1幢101室1-001单元,27.9094865738175,120.828003883435
十堰环球港店,十堰市,湖北省十堰市,,湖北省十堰市茅箭区湖北十堰茅箭区五堰街办北京北路86号地上一层1A-a01号铺位,32.63655604675148,110.7980589864019
重庆云阳滨江购物公园店,重庆市,重庆市重庆市,,重庆市云阳县青龙街道滨江大道333号滨江购物公园地上一层商业10号铺位和地上二层商业19号铺位,30.92042288841966,108.71892213821413
北京尚峯壹号店,北京市,北京市北京市,,北京市顺义区北京顺义区赵全营段231号院3号楼,40.21134692552691,116.5104764699936
合肥肥西旭辉广场店,合肥市,安徽省合肥市,,安徽省合肥市肥西县经开区上派镇派河大道88号肥西旭辉广场1F-001单元,31.73663,117.15992
广州海珠信和广场店,广州市,广东省广州市,,广东省广州市海珠区广东省广州市海珠区广州市海珠区昌岗中路239号101铺,23.0897692819359,113.275051116943
龙岩京华中心分店,龙岩市,福建省龙岩市,,福建省龙岩市新罗区西陂街道龙岩大道中688号京华中心地上一层JH1001店铺,25.08606530463043,117.02100276947021
西安长安大学渭水校区店,西安市,陕西省西安市,,陕西省西安市未央区天行健餐厅1号楼地上1层001单元商铺,34.37483352445578,108.90720784664155
西安万众国际店,西安市,陕西省西安市,,陕西省西安市雁塔区曲江街道曲江池南路282号万众国际B座写字楼一层,34.19512222718189,108.9894014596939
上海金山朱泾嘉都店,上海市,上海市上海市,,上海市金山区朱泾镇万安街102号5幢,30.89718898713116,121.17598056793214
上海静安晶品B1店,上海市,上海市上海市,,上海市静安区愚园路68号地下一层LG1-23A,31.22531186240684,121.44678711891176
徐州睢宁万达广场店,徐州市,江苏省徐州市,,江苏省徐州市睢宁县永昶路12号52号楼睢宁万达广场一层1001A单元,33.92023321716973,117.93544292449953
上海吉宝绿地缤纷城店,上海市,上海市上海市,,上海市嘉定区康丰路58号1层,31.3199096889004,121.276053786278
广州增城锦绣天伦店,广州市,广东省广州市,,广东省广州市增城区广州市增城区新塘镇新绣南路117号、119号,23.1253495533007,113.639496803153
金华磐安宝龙广场店,金华市,浙江省金华市,,浙江省金华市磐安县安文街道宝龙广场负一层S10第118B-1、119A、119B号商铺,29.0552690456866,120.4446920154078
无锡宜兴丁蜀宝龙店,无锡市,江苏省无锡市,,江苏省无锡市宜兴市江苏无锡宜兴市丁蜀镇白宕北路200号M1-L1-051商铺,31.270316347182725,119.8358201980591
六盘水百盛店,六盘水市,贵州省六盘水市,,贵州省六盘水市钟山区黄土坡街道钟山大道百盛(六盘水钟山西路店),26.5941923798265,104.830030202866
珠海中央汇店,珠海市,广东省珠海市,,广东省珠海市香洲区香江路横琴新家园北侧,22.1293363431926,113.544516563416
六安万达广场店,六安市,安徽省六安市,,安徽省六安市金安区皋城东路与球拍东路交口六安万达广场1AF层W1A70单元星巴克,31.76263892539267,116.50727659463887
泉州晋江机场分店,泉州市,福建省泉州市,,福建省泉州市晋江市和平中路118号泉州晋江国际机场国内航站楼二楼2C10-3店铺,24.800905,118.592613
连云港文峰广场店,连云港市,江苏省连云港市,,江苏省连云港市海州区郁洲北路36号文峰广场一层1F-001单元,34.609686,119.192784
上海国华人寿金融大厦店,上海市,上海市上海市,,上海市浦东新区向城路288号第一层101-1室,31.225921971784,121.533272266388
常州金坛八佰伴店,常州市,江苏省常州市,,江苏省常州市金坛区金城镇横街121号金坛八佰伴地上一层F101号铺位,31.746347,119.567696
上海松江恒都广场店,上海市,上海市上海市,,上海市松江区茸梅路600弄3号101室、102室、103室、茸梅路606号1层、茸梅路608号1层,31.037896,121.247014
上海IF园区店,上海市,上海市上海市,,上海市闵行区春东路508号3幢1层103单元,31.086175,121.389235
北京理想汽车研发总部店,北京市,北京市北京市,,北京市顺义区高丽营镇恒兴路4号院1幢1层101-1室,40.1689785784165,116.579586268126
西安欧亚学院店,西安市,陕西省西安市,,陕西省西安市雁塔区东仪路8号西安欧亚学院内餐饮大厦一层东侧,34.1778602868094,108.919856073044
上海徐汇绿地缤纷B1店,上海市,上海市上海市,,上海市徐汇区龙华中路759号地下一层W-B133单元,31.1831772702506,121.457376480103
上海白金湾广场店,上海市,上海市上海市,,上海市虹口区北外滩街道公平路85号白金湾广场,31.2511898836389,121.506332159042
南宁中山路万象汇店,南宁市,广西壮族自治区南宁市,,广西省南宁市青秀区广西南宁中山路229号自编LG105单元,22.8103648234809,108.322126865387
贵阳银海元隆店,贵阳市,贵州省贵阳市,,贵州省贵阳市云岩区北京路社区服务中心北京路161号,26.59223044704425,106.7039179801941
青岛台东步行街店,青岛市,山东省青岛市,,山东省青岛市市北区台东街道台东三路42-46号商铺,36.08353747767259,120.35476326942447
武汉万象城1店,武汉市,湖北省武汉市,,湖北省武汉市江岸区建设大道668号武汉万象城,30.5991094441607,114.278903245795
福州白马万科里分店,福州市,福建省福州市,,福建省福州市台江区上海街道西洋路179号万科广场A地块S-16#楼1层01商铺,26.06927351909048,119.29294109344484
珠海港湾壹号店,珠海市,广东省珠海市,,广东省珠海市香洲区唐家湾镇唐中路港湾1号,22.36517956711538,113.5991456507327
苏州歌林小镇L区店,苏州市,江苏省苏州市,,江苏省苏州市吴中区越溪吴郡路366号第三层的L315、L316单元,31.193642,120.615844
沈阳皇姑万象汇店,沈阳市,辽宁省沈阳市,,辽宁省沈阳市皇姑区陵东街道崇山东路崇山东路18号皇姑万象汇,41.83409402820223,123.45759630203248
青岛海天中心店,青岛市,山东省青岛市,,山东省青岛市市南区香港西路48号海天Mall第一层的1F-12单元,36.05710936302664,120.36968708038331
苏州常熟江南美好荟店,苏州市,江苏省苏州市,,江苏省苏州市常熟冬青路88号江南美好荟1层113、114单元,31.6485591577585,120.784721374512
杭州临安锦南宝龙广场店,杭州市,浙江省杭州市,,浙江省杭州市临安区玲珑街道双拥路1号临安锦南宝龙广场零售商区的地上一层的M1-L1-001-4单元。,30.2016404116231,119.696141051827
金华浦江海乐城店,金华市,浙江省金华市,,浙江省金华市浦江县浙江省金华市浦江县浦南街道蒋塘路海乐城,29.43524964602442,119.91509341984057
长沙新世界百货店,长沙市,湖南省长沙市,,湖南省长沙市芙蓉区五一西路153号,28.19486339,112.97823178
广州海珠丽影广场店,广州市,广东省广州市,,广东省广州市海珠区广州海珠区新港中路352号之一105铺,23.0958526210779,113.319298982751
深圳中国储能大厦店,深圳市,广东省深圳市,,广东省深圳市南山区粤海街道高新区社区科苑南路3099号中国储能大厦1层,22.5381652561113,113.944836258888
深圳前海嘉里中心店,深圳市,广东省深圳市,,广东省深圳市南山区南山街道风华社区前海大道前海嘉里商务中心四期T1写字楼首层102-103单元,22.5254806223923,113.891959190369
杭州运河亚运公园店,杭州市,浙江省杭州市,,浙江省杭州市拱墅区学院北路999号运河亚运公园花令十二坊·时尚街区S-01商铺；,30.312434859293,120.103950977064
深圳微软科通大厦店,深圳市,广东省深圳市,,广东省深圳市南山区粤海街道高新南九道55号之9号微软科通大厦1层1E号,22.52645293186514,113.93999934201932
广州汉溪时代二店,广州市,广东省广州市,,广东省广州市番禺区钟村街泽溪17号汉溪项目（二期） 5号楼一层B3-102号商铺,22.993356,113.33261
南宁嘉和城店,南宁市,广西壮族自治区南宁市,,广西省南宁市兴宁区昆仑大道955号嘉和城布洛可二区11栋101-103、105号商铺,22.8991459483297,108.444199562073
杭州艺尚小镇店,杭州市,浙江省杭州市,,浙江省杭州市临平区浙江省杭州市临平区乔司街道汀兰街251幢2幢第一层29-3号商铺,30.38345997687079,120.28925642975084
深圳光明万达广场店,深圳市,广东省深圳市,,广东省深圳市光明区光明新区高新东、观光路与光明大道交汇处西侧特区建发乐府广场地面一层1001号铺位,22.74765588208554,113.93189787850135
南京溧水大润发店,南京市,江苏省南京市,,江苏省南京市溧水区致远路68号大润发一楼,31.637772,119.039978
苏州吴江天虹店,苏州市,江苏省苏州市,,江苏省苏州吴江区中山南路1818号天虹商业广场星巴克,31.14471532209942,120.64397245645526
文山光大广场店,文山市,云南省文山市,,云南省文山市文山市开化街道东风路70号1-2-9号铺,23.3682641343304,104.25082862377168
中山黄圃凯隆城店,中山市,广东省中山市,,广东省中山市黄圃镇兴圃大道西100号1F-L101,22.71131400621466,113.32677483558656
济南汉峪金谷店,济南市,山东省济南市,,山东省济南市历城区港沟街道凤飞路汉峪金谷金融商务中心二区1号楼星巴克咖啡,36.659195,117.146034
上海金山亭林名悦广场店,上海市,上海市上海市,,上海市金山区亭林镇林吉路717号地上一层的104单元,30.8988461082312,121.328576803207
深圳松岗杉杉奥特莱斯店,深圳市,广东省深圳市,,广东省深圳市宝安区广东省深圳市宝安区松岗街道艺展天地展示中心第一层A136铺位,22.782935,113.835913
保定定州大世界店,保定市,河北省保定市,,"河北省保定市定州市街道中山中路49号大世界广场零售商区的第1层的1F-03,1F-04,1F-05单元",38.51607162715232,114.98847842216495
衢州时代生活广场店,衢州市,浙江省衢州市,,浙江省衢州市柯城区县西街18号一层,28.95948790082905,118.8688623905182
上海高尚领域1F店,上海市,上海市上海市,,上海市普陀区上海市普陀区礼泉路719号1楼的L101号,31.253843,121.408255
吉首天虹购物中心店,吉首市,湖南省吉首市,,湖南省吉首市吉首市乾州街道人民中路15号吉首天虹购物中心,28.25854302202157,109.7018712759018
北京市望京国际研发园店,北京市,北京市北京市,,北京市朝阳区东湖街道望京东路6号望京国际研发园,40.00695358459673,116.48899733987491
杭州钱江世纪城嘉润公馆,杭州市,浙江省杭州市,,浙江省杭州市萧山区盈丰街道杭州国际办公中心嘉润铭座6幢112室,30.2360031471032,120.234924102078
惠州东平永旺店,惠州市,广东省惠州市,,广东省惠州市惠城区东湖西路168号隆生半岛广场首层R101B号铺位,23.0868972658876,114.42969918251038
上海陆家嘴滨江中心店,上海市,上海市上海市,,上海市浦东新区滨江大道5159号N5座地上1层L104B单元,31.211216,121.51348
武汉白沙洲龙湖店,武汉市,湖北省武汉市,,湖北省武汉市洪山区湖北省武汉市洪山区张家湾街道白沙三路白沙洲龙湖天街,30.47727374576132,114.2927572940971
沈阳前海环球汇店,沈阳市,辽宁省沈阳市,,辽宁省沈阳市沈河区风雨坛街道玫瑰家园(青年大街)沈阳宝能环球金融中心一层,41.7791528364569,123.434829711914
南京徐庄路店,南京市,江苏省南京市,,江苏省南京市玄武区玄武大道699-8号1幢102室,32.09281201052002,118.88397932052612
北京上地元中心咖啡店,北京市,北京市北京市,,北京市海淀区清河街道西二旗西路16号院6号楼一层102,40.04991981806036,116.31533503565151
北京国际财经中心店,北京市,北京市北京市,,北京市海淀区西三环北路87号国际财经中心一层,39.93546542090086,116.30921959909756
萍乡润达国际购物中心店,萍乡市,江西省萍乡市,,江西省萍乡市安源区后埠街德铭路199号润达国际城市综合体裙楼（5号楼）101/102/103/105/106/107商铺,27.64466340629,113.851339817047
宁波江北万科云汇中心店,宁波市,浙江省宁波市,,浙江省宁波市江北区浙江省宁波市江北区同济路299号,29.9470690763006,121.46394848808995
广州香港科技大学店,广州市,广东省广州市,,广东省广州市南沙区广州市南沙区东涌镇香港科技大学（广州）（筹）核心区C1行政楼首层ADM-L1-16/17,22.88734871753788,113.48225498251853
盐城东台八佰伴店,盐城市,江苏省盐城市,,江苏省盐城市东台市东台镇望海东路58号一层L1008单元,32.85169165086753,120.33014059066774
南阳红都时代广场店,南阳市,河南省南阳市,,河南省南阳市卧龙区新华街道人民南路203号红都时代广场A馆地上一层A1F-B12单元,32.996346538254,112.536313891542
广州花都天河城奥莱店,广州市,广东省广州市,,广东省广州市花都区迎宾大道173号1033号商铺,23.3779411200001,113.25249644
安庆弘阳广场店,安庆市,安徽省安庆市,,安徽省安庆市宜秀区大桥街道安庆弘阳广场零售商区一层1027单元,30.54483584804498,117.1009111404419
漳州诏安唐道分店,漳州市,福建省漳州市,,福建省漳州市诏安县南诏镇华滨路2号金座唐道.613购物中心地上一层1F-006,23.73000192745584,117.174657583455
潍坊坊子泰华城店,潍坊市,山东省潍坊市,,山东省潍坊市坊子区凤凰街5399号坊子泰华城一层 FZ-134号,36.65253985266921,119.15799379348756
滨州爱琴海店,滨州市,山东省滨州市,,山东省滨州市滨城区彭李街道黄河十二路83号爱琴海一层星巴克,37.40522715622841,117.99183368682861
北京亦庄龙湖店,北京市,北京市北京市,,北京市大兴区北京经济技术开发区兴海路1号院1号楼1层1F-26星巴克亦庄龙湖店,39.7527533140677,116.489871740014
宁波奉化华侨豪生酒店,宁波市,浙江省宁波市,,浙江省宁波市奉化区南山路177号1-1单元,29.676401,121.413109
北京汇龙森店,北京市,北京市北京市,,北京市通州区北京经济技术开发区科创十四街99号33幢C栋1层106室,39.777504,116.55694
北京草桥上品店,北京市,北京市北京市,,北京市丰台区北京市丰台区草桥东路1号一层F1-1003-1,39.851272,116.358962
沈阳优乐桃源里店,沈阳市,辽宁省沈阳市,,辽宁省沈阳市于洪区北陵街道华锐桃源欣城优乐·桃源里,41.8728204198895,123.39813709259035
天津东丽湖万科广场店,天津市,天津市天津市,,天津市东丽区东丽湖街景福路135号（慕湖苑）16号楼1F-29铺位,39.1836535288908,117.504765987396
北京梅源商厦店,北京市,北京市北京市,,北京市丰台区东高地街道梅源里小区(万源南路)首航梅源商厦,39.79820009162764,116.4193618297577
马鞍山当涂大润发店,马鞍山市,安徽省马鞍山市,,安徽省马鞍山市当涂县姑孰镇振兴中路215号第一层的10117-F1-21+25铺位,31.56335241092021,118.49898576736452
绍兴皋埠鲸银城店,绍兴市,浙江省绍兴市,,浙江省绍兴市越城区皋埠街道三湖路17号,30.00247048251522,120.6796824927733
成都双流茂业时代广场店,成都市,四川省成都市,,四川省成都市双流区西航港街道黄河中路二段和江河路交汇处成都农商银行(西港路支行)对面,30.5725088245981,103.998663425446
北京旭阳科技大厦店,北京市,北京市北京市,,北京市丰台区四合庄路6号院1号楼1至10层101内1层05单元,39.8258827670608,116.311038136482
杭州阿里云谷园区9号楼,杭州市,浙江省杭州市,,浙江省杭州市西湖区三墩镇双桥社区张成斗12号云谷园区9号楼地上第一层的1号铺位,30.3182753363287,120.040794610977
无锡530大厦店,无锡市,江苏省无锡市,,江苏省无锡市滨湖区明园路530大厦1号楼1层C幢,31.545781,120.247294
合肥华润欢乐颂店,合肥市,安徽省合肥市,,安徽省合肥市庐阳区长丰南路66号欢乐颂L128号商铺,31.876828784611266,117.26162910461426
武汉南国中心城店,武汉市,湖北省武汉市,,湖北省武汉市江汉区解放大道1385号,30.58513242172554,114.28234398365022
上海七莘红点城店,上海市,上海市上海市,,上海市闵行区七莘路1809弄1、4、5号地下1、1_3层L1-148-1,31.133768,121.362679
上海慎余里非遗概念店,上海市,上海市上海市,,上海市静安区福建北路100号苏河湾万象天地西里慎余里星巴克,31.242955736132,121.477244138914
长春环球购物广场店,长春市,吉林省长春市,,吉林省长春市南关区永兴街道东部快速路510gtc号长春环球贸易中心,43.81385961850149,125.37938833236696
南京熊猫大厦店,南京市,江苏省南京市,,江苏省南京市玄武区中山东路301号101室,32.0407311248836,118.805701732636
太原钟楼街店,太原市,山西省太原市,,山西省太原市迎泽区柳巷街道钟楼街121号星巴克咖啡,37.86808416516933,112.56348886308844
西安幸福林带环球港店,西安市,陕西省西安市,,陕西省西安市新城区长乐中路街道万寿中路55号幸福林带环球港地下一层C-3301,34.259564,109.015237
天津全运村店,天津市,天津市天津市,,天津市津南区天津市河西区渌水道南侧云实园9-46号底商及9-47号底商,39.042951,117.257457
黄石大冶中央商场店,黄石市,湖北省黄石市,,湖北省黄石市大冶市东风路街道新冶大道雨润国际广场一层星巴克,30.1092757888541,114.975598454475
昆明同德广场2店,昆明市,云南省昆明市,,云南省昆明市盘龙区联盟街道北京路928号昆明同德广场A5-B1-44号铺,25.0671938134144,102.723326683044
上海松江通跃路店,上海市,上海市上海市,,上海市松江区通跃路161号1层、绿城路361号1层、绿城路363号1层、绿城路365号1层、嘉松南路408号128号,31.0319093260497,121.23138427734376
北京远洋光华国际店,北京市,北京市北京市,,北京市朝阳区景华南街5号C座一层27/29单元,39.91537329198099,116.45496547222137
杭州钱江世纪城山水时代,杭州市,浙江省杭州市,,浙江省杭州市萧山区浙江省杭州市萧山区盈丰街道鸿宁路2305号,30.24119553129171,120.24798274051138
北京郭公庄北京方向店,北京市,北京市北京市,,北京市丰台区郭公庄中街20号院1号楼1层,39.81368763813831,116.3004755973816
杭州海威中心店,杭州市,浙江省杭州市,,浙江省杭州市滨江区西兴街道滨康路101号海威中心3幢102室、103-1室,30.18015403683663,120.22265911102296
广州天河信达金茂广场店,广州市,广东省广州市,,广东省广州市天河区广州大道北920号信达金茂广场首层,23.17097288051961,113.31871747970582
上海海纳创联园店,上海市,上海市上海市,,上海市长宁区延安西路1536号,31.2087273060001,121.421381235
上海凤庆路店,上海市,上海市上海市,,上海市闵行区凤庆路213号-215号,31.02088772612494,121.41403198242188
西安永威时代中心店,西安市,陕西省西安市,,陕西省西安市雁塔区陕西西安雁塔区丈八二路11号永威时代中心地上一层10108单元部分,34.1909672594064,108.880949020386
南京下关城开大厦店,南京市,江苏省南京市,,江苏省南京市鼓楼区江东北路419号下关城开大厦一楼星巴克,32.068569778,118.737369776
上海龙湖金汇天街店,上海市,上海市上海市,,上海市奉贤区南行港路388号,30.9678875536846,121.51117408295252
滨州吾悦广场店,滨州市,山东省滨州市,,山东省滨州市滨城区渤海十八路456号吾悦广场一层星巴克,37.35348,117.956255
阳泉万达广场店,阳泉市,山西省阳泉市,,山西省阳泉市郊区平阳路阳泉万达广场星巴克咖啡,37.88353344871936,113.58829021453857
上海富锦路地铁站店,上海市,上海市上海市,,上海市宝山区蕰川路2462号101,31.39355701108057,121.42411708831789
仙桃武商MAll店,武汉市,湖北省武汉市,,仙桃市龙华山钱沟路西侧武商仙桃购物广场地上一层C0101001号商铺,30.3626093715216,113.454866409302
清远英德合地广场店,清远市,广东省清远市,,广东省清远市英德市英城和平中路天力时代广场首层C区L1002号铺,24.1830549109985,113.414129018784
湖州安吉恒隆府店,湖州市,浙江省湖州市,,浙江省湖州市安吉县浙江湖州安吉县昌硕街道丰华路7-13号恒隆商业广场1幢营02-1号商铺、1幢2号营11-3号商铺,30.61638876025994,119.68258559703828
福建省第二人民医院分店,福州市,福建省福州市,,福建省福州市鼓楼区华大街道福建中医药大学附属第二人民医院住院部,26.10625571228658,119.3054348230362
杭州花园中心店,杭州市,浙江省杭州市,,浙江省杭州市上城区环站东路768号东站花园商务中心2幢第一层118和121室商铺,30.29799826667572,120.2195316553116
北京劲松富顿中心店,北京市,北京市北京市,,北京市朝阳区东三环南路58号3号楼1层104室1号劲松富顿中心一层星巴克,39.88492767052816,116.46255075898809
台州玉环万达店,台州市,浙江省台州市,,浙江省台州市玉环市经济开发区银湖大道22号台州玉环万达广场地上一层1001号,28.21638848665074,121.25814199447635
南宁万科广场店,南宁市,广西壮族自治区南宁市,,广西省南宁市青秀区长虹路10号首层自编L110单元,22.8453147275417,108.386047125387
杭州绿城桃源小镇店,杭州市,浙江省杭州市,,浙江省杭州市余杭区余杭街道西溪山庄商苑第12幢房屋；,30.23152842056105,119.96509730815887
北京用友软件园1店,北京市,北京市北京市,,北京市海淀区西北旺镇用友产业园西区5号楼一层,40.0659861764072,116.2356519686
大连华南万象汇店,大连市,辽宁省大连市,,辽宁省大连市甘井子区山东路350号LG层118号商铺星巴克咖啡,38.9904283252379,121.58599913120273
吉林欧亚综合体店,吉林市,吉林省吉林市,,吉林市丰满区红旗街道吉桦路128号欧亚综合体一层星巴克咖啡,43.79064503994386,126.55387401580812
嘉兴桐乡濮院贵封广场店,嘉兴市,浙江省嘉兴市,,浙江省嘉兴市桐乡市濮院镇紫金路599号极极中心1幢147室、148室和149室,30.67616293857163,120.6025940179825
长沙万科金色梦想店,长沙市,湖南省长沙市,,湖南省长沙市岳麓区麓谷街道谷苑路312号万科·金色梦想小区D地块S9-3#商业地上一层158、159、160-1号铺位,28.21512007995023,112.85978615283967
北京华天大厦店,北京市,北京市北京市,,北京市海淀区北小马厂6号华天大厦地上一层1166-F1-A001单元星巴克咖啡店,39.89777755366078,116.3359022140503
苏州吴江黎里古镇店,苏州市,江苏省苏州市,,江苏省苏州市吴江区黎里镇浒泾南路106、108、110、112、116号,30.99035285580404,120.7082086801529
厦门万达鹭港分店,厦门市,福建省厦门市,,福建省厦门市湖里区殿前街道长浩东路11号万达鹭港B3栋地上一层1020店铺,24.5222608765054,118.109493255834
上海静安MOHO店,上海市,上海市上海市,,上海市静安区江宁路699号地下一层B1-47,31.2374628477428,121.448085308075
保定未来石万达店,保定市,河北省保定市,,河北省保定市莲池区东金庄乡文兴路万达广场一层,38.88021785005201,115.55822253227235
徐州丰县吾悦广场店,徐州市,江苏省徐州市,,江苏省徐州市丰县江苏省徐州市丰县中阳大道315号1层1036-2单元,34.6923681144378,116.630387306213
佛山里水嘉洲广场店,佛山市,广东省佛山市,,广东省佛山市南海区佛山市南海区里水镇里水大道中76号1A-131,23.16989447851218,113.14752817153932
东莞凤岗锦龙又一城店,东莞市,广东省东莞市,,广东省东莞市东莞市广东省东莞市凤岗镇凤深大道锦龙又一城19号楼101、102、103室,22.7477917641047,114.144095421034
北京富凯大厦店,北京市,北京市北京市,,北京市西城区金融大街19号A101富凯大厦1层大堂,39.9148054926083,116.359323263168
杭州万象世界中心店,杭州市,浙江省杭州市,,浙江省杭州市萧山区盈丰街道 博奥路2485-3号,30.23178,120.236627
郑州正弘汇店,郑州市,河南省郑州市,,河南省郑州市中原区河南省郑州市中原区梧桐街道金梭路33号,34.80898052230912,113.56769299487497
上海宏汇莲花广场店,上海市,上海市上海市,,上海市闵行区莲花路1308号2幢1层107室,31.15637168995528,121.39639139233624
儋州海花岛店,儋州市,海南省儋州市,,海南省儋州市儋州市滨海新区第四组团控制性详细规划1-E6-1地块和1-E6-3地块中国海南海花岛1#岛E区风情商业街ES3号楼A001号,19.65913448732498,109.1774618625641
兰州安宁吾悦广场店,兰州市,甘肃省兰州市,,甘肃省兰州市安宁区银滩路安宁吾悦广场2号门,36.09568405949442,103.70952129364017
深圳Halo广场店,深圳市,广东省深圳市,,广东省深圳市罗湖区笋岗街道笋西社区梨园路8号HALO广场一期地上一层L1-23-1,22.5586910828497,114.10694360733034
武汉鹏程商务中心店,武汉市,湖北省武汉市,,湖北省武汉市武昌区水果湖横路11-13号,30.547228,114.343357
无锡惠山悦尚奥特莱斯店,无锡市,江苏省无锡市,,江苏省无锡市惠山区惠山大道66号D1-02商铺,31.6333966918958,120.309691429138
淮安融创广场店,淮安市,江苏省淮安市,,江苏省淮安市清江浦区天津路西、延安东路南融创广场1035号商铺,33.57306264572913,119.05227184295656
绍兴华联银泰城,绍兴市,浙江省绍兴市,,浙江省绍兴市越城区北海街道二环北路28号L1002,30.027195,120.555197
成都成华招商花园城店,成都市,四川省成都市,,四川省成都市成华区建设路街道招商花园城购物中心,30.671438,104.133595
辽源欧亚购物中心店,辽源市,吉林省辽源市,,吉林省辽源市龙山区辽源民营经济开发区顾家家居(财富大道欧亚床垫店)欧亚购物中心辽源店停车场,42.89844645725943,125.1174169778824
沈阳招商花园城店,沈阳市,辽宁省沈阳市,,辽宁省沈阳市浑南区五三街道营盘北街city花园城沈阳花园城购物中心,41.7439721537039,123.454484939575
长春北湖吾悦广场店,长春市,吉林省长春市,,吉林省长春市宽城区奋进乡远达大街9888号北湖吾悦广场一楼星巴克,43.97166173142701,125.38636207580566
南通西站出发层店,南通市,江苏省南通市,,江苏省南通市通州区尧盛路南通西站出发层NTX-1F-03单元,32.10158962605399,120.76583862304688
上海青湖路2店,上海市,上海市上海市,,上海市青浦区青湖路837号,31.1454453217897,121.1349105834961
厦门航空古地石广场店,厦门市,福建省厦门市,,福建省厦门市湖里区航空古地石广场地上一层A122店铺,24.49279192627322,118.1682586669922
苏州狮山金融创新中心店,苏州市,江苏省苏州市,,江苏省苏州市虎丘区竹园路6号,31.284141,120.57283
江门梁金山服务区南店,江门市,广东省江门市,,广东省江门市开平市沈海高速（G15）开阳段江门梁金山服务区南区首层L1-09铺,22.45103404973864,112.68463790416718
青岛东方影都店,青岛市,山东省青岛市,,山东省青岛市黄岛区东岳东路1607号内1栋综合楼A1004-2,35.913158032902125,120.1075601577759
杭州西港发展中心店,杭州市,浙江省杭州市,,浙江省杭州市西湖区三墩镇振华路290-3号商铺；,30.31274522171129,120.06643433496723
上海中兴路1号店,上海市,上海市上海市,,上海市静安区上海市静安区中兴路456、458号,31.2566993996814,121.474735737174
上海科技馆地铁站店,上海市,上海市上海市,,上海市浦东新区世纪大道2002号南广场地下一层F-03/05商铺,31.21938946823591,121.54281020164493
上海瑞安蟠龙天地2店,上海市,上海市上海市,,上海市青浦区上海市青浦区蟠鼎路177弄6号SD116室,31.1904465170689,121.274557113647
深圳红山鹏润达店,深圳市,广东省深圳市,,广东省深圳市龙华区民治街道腾龙路152号润达圆庭鹏润达环球服贸广场一楼107、108、109号商铺,22.62519529469029,114.02230143539784
上海前滩31乐荟店,上海市,上海市上海市,,上海市浦东新区三林镇海阳西路666弄15号01-09单元,31.150271442247,121.484805822111
上海中邦秀食街店,上海市,上海市上海市,,上海市浦东新区秀沿路826号-1,31.1345360616499,121.569879055023
苏州科技城星悦里店,苏州市,江苏省苏州市,,江苏省苏州市虎丘区天佑路9号星悦里科技城商场1楼,31.3449233552699,120.43681740760805
深圳宝能科技园11栋店,深圳市,广东省深圳市,,广东省深圳市龙岗区龙华区清丽路宝能科技园11栋地上一层西侧,22.67201406299167,114.06515371792922
池州商之都店,池州市,安徽省池州市,,安徽省池州市贵池区长江中路与百牙路交汇处商之都池州购物中心地上一层1F-18-1号商铺,30.66309131168699,117.4830722808838
北京合生广场店,北京市,北京市北京市,,北京市丰台区果园8号楼1F层L1-01B1,39.856353,116.397864
深圳欢乐海岸购物中心店,深圳市,广东省深圳市,,广东省深圳市南山区白石路东欢乐海岸O’Plaza 购物中心地面一层LG-033号,22.52521484521424,113.98980861318707
成都简阳德盛商业店,成都市,四川省成都市,,四川省成都市简阳市简阳德盛商业,30.407848626,104.544739723
南平武夷山三姑度假区店,南平市,福建省南平市,,福建省南平市武夷山市武夷街道大王峰南路11号,27.64491051144893,117.97970652602092
上海一二八广场店,上海市,上海市上海市,,上海市宝山区一二八纪念路401号,31.32752125530791,121.45917892456056
温州瑞安罗阳大道店,温州市,浙江省温州市,,浙江省温州市瑞安市瑞安罗阳大道,27.77522805553359,120.661758184433
上海云栖小小mall店,上海市,上海市上海市,,上海市浦东新区栖山路1789号103-1室,31.25982501493882,121.56927824020389
青岛悦荟广场店,青岛市,山东省青岛市,,山东省青岛市市北区人民路269号,36.10517,120.36143
上海永和东路店,上海市,上海市上海市,,上海市静安区共和新路2999弄11号1层101单元,31.289571875385157,121.45527362823488
杭州富阳山水国际店,杭州市,浙江省杭州市,,浙江省杭州市富阳区鹿山街道依江路486号,30.0106371228723,119.928324222565
成都市翡翠公园万科里店,成都市,四川省成都市,,四川省成都市双流区怡心街道沈阳路西段33号成都翡翠公园万科里F1层星巴克咖啡,30.471926,104.028802
成都天府和悦广场店,成都市,四川省成都市,,四川省成都市双流区麓山大道二段199号,30.488483,104.082305
北京北苑上品店,北京市,北京市北京市,,北京市朝阳区朝阳区北苑路甲13号院2号楼,40.03113877041396,116.41717851129216
杭州义蓬中天纪店,杭州市,浙江省杭州市,,浙江省杭州市钱塘区义蓬街道蓬和路94号96号,30.26878,120.488079
杭州米果社区店,杭州市,浙江省杭州市,,浙江杭州上城区紫阳街道甬江路61号米果邻里大厦,30.2238582943359,120.189249515533
上海海潮路店,上海市,上海市上海市,,上海市黄浦区海潮路133号地下一层,31.2105900596402,121.498489379883
上海崇明长兴丰福路店,上海市,上海市上海市,,上海市崇明区长兴镇丰福路599弄186号116室A02单元,31.383348,121.704422
长沙望城吾悦广场店,长沙市,湖南省长沙市,,湖南省长沙市望城区长沙望城吾悦广场第一层L1001、1002铺位,28.2773850052249,112.87701129913331
